,Company,Address,SIC2,Latitude,Longitude,NeighborSIC52,NeighborSIC53,NeighborSIC54,NeighborSIC55,NeighborSIC56,NeighborSIC57,NeighborSIC58,NeighborSIC59,NeighborSIC60,NeighborSIC61,NeighborSIC62,NeighborSIC63,NeighborSIC64,NeighborSIC65,NeighborSIC66,NeighborSIC67,NeighborSIC68,NeighborSIC69,NeighborSIC70,NeighborSIC71,NeighborSIC72,NeighborSIC73,NeighborSIC74,NeighborSIC75,NeighborSIC76,NeighborSIC77,NeighborSIC78,NeighborSIC79,NeighborSIC80,NeighborSIC81,NeighborSIC82,NeighborSIC83,NeighborSIC84
9,QUIZNOS CORPORATION,1884 WESTWOOD BLVD,58,34.0485,118.4355,,,,,,,2.0,,,,,,,,,,,,,,3.0,2.0,,,1.0,,,,,,,,
29,HARVEST FRESH CATFISH CO INC,1731 N SPRING ST,58,34.0702,118.2259,,,3.0,,,,1.0,,,,,,,,,,,,,,,,,,,,,,,,,,
39,EL AMIGO RESTAURANT,4501 YORK BLVD,58,34.1237,118.2181,,,,,,,3.0,,,,,,,,,,,,,,,1.0,,,,,,,,,,,
160,TWO GUYS FROM ITALY,6676 YUCCA ST,58,34.1031,118.3356,,,,,,,1.0,,,,,,,1.0,,,,,,,,,,,,,,,,,,,
266,NOTIVEL ENTERPRISES INC,5920 W SUNSET BLVD,58,34.0979,118.3187,,,,,,,3.0,,,,,,,,,,,,,,,,,,,,,,,,,,
354,PHO ABC,928 S WESTERN AVE STE 117,58,34.0548,118.3089,,,7.0,,70.0,5.0,23.0,39.0,1.0,,,,1.0,3.0,,2.0,,,,,11.0,8.0,,1.0,,,1.0,,5.0,,,,
422,WEST HOLLYWOOD INTERESTS LTD,8851 SANTA MONICA BLVD,58,34.0854,118.3835,,,,,,,1.0,,,,,,,,,,,,,,,,,,,,,1.0,,,,,
461,GOLD ROOM,1558 W SUNSET BLVD,58,34.0764,118.2569,,,,,,,1.0,1.0,1.0,,,,,1.0,,,,,,,,,,,,,,,,,,,
472,EAST WIND EXPRESS,7363 W SUNSET BLVD,58,34.0981,118.3504,,,1.0,,,,5.0,1.0,,,,,,,,,,,,,2.0,,,,,,,,,,,,
482,EL PAIZA MEXICAN FOOD,106 N AVENUE 58,58,34.1101,118.1921,,,1.0,,,1.0,1.0,2.0,,,,,,1.0,,,,,,,2.0,,,,,,,,,,,,
488,EMY BURGERS,7315 COMPTON AVE,58,33.9737,118.2478,,,,,5.0,1.0,1.0,3.0,,,,,,,,,,,,,6.0,,,2.0,,,,,2.0,,,,
507,EXPRESS RESTAURANT & CLUB,730 S CLOVERDALE AVE,58,34.0616,118.3462,,,,,,,1.0,,,,,,,,,,,,,,,1.0,,,,,1.0,,,,,,
559,CASANA PAULA JUANA,4433 S ALAMEDA ST A23,58,34.003,118.2392,2.0,4.0,15.0,3.0,83.0,27.0,8.0,48.0,3.0,1.0,,,,5.0,,,,,,,16.0,11.0,,,6.0,,,1.0,3.0,,,,1.0
607,JORDANS CAFE,4448 W SLAUSON AVE,58,33.9887,118.3528,,,1.0,,,,2.0,,,,,,,,,1.0,,,,,1.0,1.0,,,,,,,,,,,
635,LA FUENTE NO 6,5552 N FIGUEROA ST,58,34.1085,118.1945,,,,,,,2.0,,,,,,,,,,,,,,,,,,,,,,,,,,
645,LE MANDARETTE,1651 3/4 N LA BREA AVE,58,34.1012,118.3452,,,1.0,,,,8.0,1.0,,,,,,,,,,,,,1.0,1.0,,,1.0,,,,,,,,
688,DENNYS INC,3060 N SAN FERNANDO RD,58,34.1141,118.2453,,,,,,,2.0,,,,,,,,,,,,,,,,,,,,,,,,,,
708,CKE RESTAURANTS INC,11077 W PICO BLVD,58,34.0373,118.4348,,,,,,,1.0,,,,,,,,,,,,,,,,,,,,,,,,,,
763,SAFARI NITE CLUB,6628 S VERMONT AVE,58,33.9788,118.2912,,,,,,,1.0,,,,,,,,,,,,,,,,,,,,,,,,,,
767,SALON SATURNO,2900 LAWNDALE DR,58,34.1339,118.2276,,,,,,,1.0,,,,,,,,,,,,,,,,,,,,,,,,,,
797,RESTAURANTE SINALOA,1165 E FLORENCE AVE,58,33.9748,118.2547,,,,1.0,,,2.0,,,,,,,,,,,,,,1.0,,,,,,,,,,,,
836,TACOMOLE,725 S FIGUEROA ST,58,34.049,118.2603,1.0,,1.0,,1.0,,6.0,5.0,11.0,1.0,11.0,4.0,12.0,15.0,,24.0,,,1.0,,5.0,37.0,,1.0,,,1.0,3.0,2.0,111.0,6.0,3.0,
843,THAI FANTASY,5900 MONTEREY RD,58,34.1044,118.1846,,,4.0,,,1.0,6.0,2.0,1.0,,1.0,1.0,,1.0,,1.0,,,,,2.0,9.0,,,4.0,,4.0,1.0,7.0,,,,
854,MYUNG DONG NOODLE HOUSE,698 IROLO ST STE 105,58,34.0598,118.3007,,,3.0,,,1.0,7.0,2.0,,,,,,1.0,,,,,,,4.0,,,,1.0,,,1.0,1.0,,,,
865,HAKIMIANPOUR RESTAURANT GROUP,11110 OHIO AVE STE 107,58,34.0501,118.4467,,,,,,,4.0,1.0,,2.0,,,1.0,5.0,,1.0,,,1.0,,1.0,10.0,,,,,6.0,2.0,11.0,2.0,1.0,5.0,
869,CATERAIR INTERNATIONAL CORP,6901 W IMPERIAL HWY,58,33.9317,118.4116,,,,,,,2.0,,,,,,,,,,,,,,,1.0,,,,,,,,,,,
957,SANDBAGS,11640 SAN VICENTE BLVD,58,34.0535,118.462,,,6.0,,4.0,,6.0,6.0,,,1.0,,,11.0,,3.0,,,,,1.0,4.0,,,,,,3.0,1.0,2.0,,,1.0
979,MANYAS TASTY FOODS,7350 MELROSE AVE,58,34.0834,118.35,,,,,9.0,,2.0,1.0,,,,,,,,,,,,,,,,,,,,,,,,,
1039,A N E INC,3346 LEONIS BLVD,58,34.0001,118.2064,,,,,,,1.0,,,,,,,,,,,,,,,,,,,,,,,,,,
1114,GOLDEN BIRD LLC,4201 WILSHIRE BLVD,58,34.0618,118.3193,1.0,,3.0,1.0,5.0,5.0,4.0,3.0,1.0,13.0,3.0,1.0,7.0,9.0,,16.0,,,1.0,,5.0,63.0,,1.0,,,6.0,5.0,24.0,34.0,13.0,8.0,
1119,HAMBURGER HAMLETS INC,811 WILSHIRE BLVD,58,34.0496,118.2583,,,1.0,,1.0,1.0,5.0,3.0,4.0,,2.0,,5.0,5.0,,4.0,,,,,,24.0,,1.0,1.0,,,,,17.0,1.0,2.0,
1131,TANGY THAI RESTAURANT,7363 W SUNSET BLVD,58,34.0981,118.3504,,,1.0,,,,5.0,1.0,,,,,,,,,,,,,2.0,,,,,,,,,,,,
1136,TODAI FRANCHISING LLC,3700 WILSHIRE BLVD,58,34.0615,118.3067,2.0,,10.0,5.0,18.0,6.0,8.0,25.0,7.0,23.0,8.0,4.0,33.0,51.0,,39.0,,,1.0,,15.0,94.0,,6.0,4.0,,4.0,9.0,28.0,62.0,10.0,5.0,
1305,JODY MARONIS SAUSAGE KINGDOM,5441 W 104TH ST,58,33.942,118.3752,,,,,,,1.0,1.0,,,,,,,,,,,,,,1.0,,,,,1.0,,,,,,
1320,TAJMAHL OF INDIA,8566 W PICO BLVD,58,34.0535,118.3775,,,,,,,3.0,,,,,,,,,,,,,,,,,,,,,,,,,,
1348,CSI RESTAURANT GROUP INC,505 S FLOWER ST,58,34.0515,118.2563,,,8.0,2.0,6.0,1.0,18.0,10.0,,,,,,1.0,,,,,,,8.0,4.0,,,1.0,,,2.0,8.0,,,,
1428,FOUR SEASONS CATERING,1300 S SAN PEDRO ST,58,34.0325,118.2539,,,1.0,,13.0,,2.0,1.0,1.0,,,,,1.0,,,,,1.0,,,3.0,,,,,,,,,,,
1466,DORYS BAKERY RESTAURANT,2523 W TEMPLE ST,58,34.0722,118.2736,,,4.0,,,,2.0,,,,,,,,,,,,,,,2.0,,,,,,,,,,,
1480,JOOM,7825 BEVERLY BLVD STE 2,58,34.0762,118.3605,,,3.0,,,,6.0,3.0,,,,,1.0,,,,,,,,,1.0,,,2.0,,,,,,,,
1495,KEE HEE ENTERPRISE INC,6507 W SUNSET BLVD,58,34.0981,118.3312,,,,,,,2.0,,,,,,,,,,,,,,1.0,,,,,,,,,,,,
1564,COACHARTORG,3303 WILSHIRE BLVD 1200,58,34.0619,118.2943,,,,,,,1.0,,1.0,2.0,,,6.0,5.0,,,,,,,2.0,2.0,,,,,,,1.0,2.0,1.0,1.0,
1641,S BAR,6304 HOLLYWOOD BLVD,58,34.0997,118.3272,1.0,2.0,15.0,11.0,44.0,20.0,51.0,76.0,9.0,6.0,3.0,,4.0,15.0,,6.0,,,8.0,,37.0,140.0,,18.0,10.0,,54.0,30.0,8.0,8.0,7.0,9.0,2.0
1665,PITFIRE WESTWOOD LLC,108 W 2ND ST APT 210,58,34.051,118.2449,1.0,,1.0,,2.0,,7.0,1.0,,1.0,,,,3.0,,1.0,,,,,2.0,28.0,,1.0,2.0,,3.0,4.0,1.0,,1.0,,
1702,CASA NOODLE TERIYAKI,5930 S MAIN ST,58,33.9864,118.2737,,,,,,,3.0,,,,,,,,,,,,,,,,,,,,,,,,,,
1756,JEAN FRANCOIS INC,827 N LA CIENEGA BLVD,58,34.0895,118.3792,8.0,,12.0,8.0,67.0,29.0,35.0,88.0,3.0,2.0,4.0,,4.0,38.0,,10.0,,,9.0,,59.0,239.0,,9.0,9.0,,77.0,40.0,20.0,16.0,6.0,7.0,3.0
1774,MARES LLC,11690 SAN VICENTE BLVD,58,34.0535,118.4647,,,,,,,3.0,,,,,,,,,1.0,,,,,,,,,,,,,,,,,
1910,LUNCHSTOP AT WISHIRE FEDERAL,11000 WILSHIRE BLVD,58,34.0575,118.4478,,1.0,,,,1.0,3.0,2.0,1.0,,,,,1.0,,,,,,,1.0,5.0,,,1.0,,1.0,,,,2.0,1.0,
1972,TENNO SUSHI 2,2321 E 1ST ST,58,34.0442,118.2105,,,,,,,3.0,,,,,,,1.0,,,,,,,,,,,1.0,,,,,,,,
1974,ELBAS SNACK BAR,10728 S CENTRAL AVE,58,33.9379,118.25399999999999,,,,,,,2.0,,,,,,,,,,,,,,,,,,,,,,,,,,
2148,FATBURGER,3026 S FIGUEROA ST,58,34.0246,118.27799999999999,,,,,,,2.0,,,,,,,,,,,,,,,1.0,,,,,,,,,,,
2201,GG INC,4533 E CESAR E CHAVEZ AVE,58,34.0407,118.1685,,,,,,,1.0,,,,,,,,,,,,,,,,,,,,,,,,,,
2216,GINAS BREADSHOP,624 W 106TH ST,58,33.9397,118.2854,,,,,,,1.0,,,,,,,,,,,,,,,,,,,,,,,,,,
2227,BIRD THE,5800 WEST BLVD,58,33.9888,118.335,,,,,,,2.0,,,,,,,,,,,,,,,1.0,,,,,,,,,,,
2293,HWA SUN JI TEA & COFFEE,3960 WILSHIRE BLVD,58,34.0615,118.3131,,,4.0,4.0,2.0,1.0,1.0,4.0,,1.0,1.0,,4.0,5.0,,3.0,,,,,2.0,22.0,,,,,,1.0,3.0,1.0,3.0,1.0,
2344,TAVARES UNI,1415 S ALAMEDA ST,58,34.025,118.2393,,,1.0,,,,1.0,,,,,,,,,,,,,,,,,,,,,,,,,,
2376,KANE,5574 MELROSE AVE,58,34.0834,118.3223,,,,,,,4.0,,,,,,,,,,,,,,,,,,,,,,,,,,
2421,LA BONITA RESTAURANT,5253 SANTA MONICA BLVD,58,34.0908,118.3042,,,,,,,2.0,,,,,,,,,,,,,,,,,,,,,,,,,,
2442,LEMONTREE,303 E 7TH ST,58,34.0424,118.249,,,,,,,7.0,,,,,,,,,,,,,,,,,,,,,,,,2.0,1.0,
2480,LOS FELIZ PASTRIES AND CAFE,3070 LOS FELIZ BLVD,58,34.1246,118.266,,,3.0,,,,1.0,,,,,,,,,,,,,,,1.0,,,,,,,,,,,
2522,TAYLA ENTERPRISES INC,12860 W WASHINGTON BLVD,58,33.9952,118.4378,,,,,,,1.0,,,,,,,,,,,,,,,,,,,,,,,,,,
2537,PANGAEA BISTRO,465 S LA CIENEGA BLVD,58,34.0695,118.3765,,,,,,,3.0,1.0,,,,,,,,,,,5.0,,,1.0,,1.0,,,,,1.0,,,,
2557,KONG JI NE RESTAURANT,3450 W 6TH ST STE 110,58,34.0634,118.2967,,,4.0,,5.0,,5.0,3.0,,,,,,,,,,,,,4.0,1.0,,,,,,1.0,,,,,
2608,BELLA MIA,1110 COLORADO BLVD,58,34.1372,118.1901,,,,,,,1.0,,,,,,1.0,,,,,,,,1.0,,,,,,,,3.0,,,,
2711,MASTER BURGER NO 3,4366 W ADAMS BLVD,58,34.0324,118.3341,,,,,,,2.0,,,,,,,,,,,,,,,,,,1.0,,,,,,,,
2743,DELICIOUS DEL SALVADOR,3400 E 8TH ST,58,34.0259,118.1958,4.0,5.0,13.0,20.0,14.0,10.0,17.0,32.0,1.0,1.0,1.0,,1.0,7.0,,2.0,,,,,17.0,73.0,,45.0,41.0,,4.0,5.0,21.0,3.0,4.0,7.0,1.0
2746,PURPLE LOUNGE,1776 S RIMPAU BLVD,58,34.0431,118.3416,,,,,,,1.0,,,,,,,,,,,,,,,,,,,,,,,,,,
2795,MARICOS PUERTO ESCONDIDO,3740 WHITTIER BLVD,58,34.0239,118.1925,,,,,,,2.0,5.0,,,,,,,,,,,,,,,,,,,,1.0,5.0,,,,
2801,MARISCOS EL PARIENTE,11125 S MAIN ST,58,33.9343,118.2739,,,,,,,2.0,,,,,,,,,,,,,,,,,,,,,,,,,,
2802,MARISCOS EL PARIENTE,4101 S BROADWAY,58,34.0089,118.2785,,,2.0,,1.0,,2.0,,,,,,,,,,,,,,,,,,,,,,,,,,
2803,MARISCOS MARIA CATERING TRUCK,2215 S VERMONT AVE,58,34.0358,118.2917,,,,2.0,,,2.0,1.0,,,,,,,,,,,,,,1.0,,,,,,,,,,,
2865,PAMPAS GRILL,6333 W 3RD ST STE 618,58,34.0714,118.3598,,1.0,21.0,1.0,13.0,4.0,38.0,47.0,,,,,,,,2.0,,,,,3.0,5.0,,,3.0,,,,3.0,,,1.0,1.0
2898,CALIFORNIA PITA,201 N LOS ANGELES ST,58,34.0524,118.2418,,,3.0,,2.0,1.0,14.0,9.0,1.0,,,,1.0,,,,,,,,8.0,4.0,,,1.0,,,,4.0,3.0,1.0,,
2913,SUBWAY INC,5609 W SUNSET BLVD,58,34.0982,118.3117,,,1.0,,,,3.0,1.0,1.0,,,,,,,1.0,,,,,3.0,,,,,,5.0,,,,,,
2968,SALSITAS PICANTE RESTAURANT,3026 W JEFFERSON BLVD,58,34.0254,118.3286,,1.0,,,,,3.0,,,,,,,,,,,,,,3.0,,,,,,,,,,,,
2979,L T ACQUISITION CORP,10645 W PICO BLVD,58,34.0427,118.4235,,,,,,,3.0,,,,,,,,,,,,,,,,,,,,,,,,,,
3051,CERESE PIZZA,351 S ATLANTIC BLVD,58,34.0308,118.1543,,,,,,,3.0,,,,,,,,,,,,,,2.0,,,,1.0,,,,,,,,
3071,ICE LINK,666 N KILKEA DR,58,34.073,118.3719,3.0,2.0,12.0,6.0,40.0,55.0,54.0,84.0,3.0,3.0,9.0,,9.0,50.0,,20.0,,,4.0,,76.0,247.0,,8.0,30.0,,67.0,25.0,55.0,23.0,9.0,13.0,3.0
3077,NUEVA GUADALUPE RESTAURANT,5305 N FIGUEROA ST,58,34.1071,118.198,,,,,,,2.0,,,,,,,,,,,,,,,,,,,,,,,,,,
3083,OCHA CLASSIC 2,3960 BEVERLY BLVD,58,34.0761,118.2948,,,,,,,1.0,2.0,,,,,,,,,,,,,,,,,,,,,,,,,
3131,OXY CAFE,4862 EAGLE ROCK BLVD,58,34.1341,118.2153,,,1.0,,,,2.0,,,,,,,,,,,,,,,,,,1.0,,,,,,,,
3146,PASHA MIDDLE EASTERN REST,3575 CAHUENGA BLVD W,58,34.1339,118.3582,,,1.0,1.0,5.0,1.0,8.0,3.0,,8.0,2.0,,4.0,6.0,,3.0,,,,,5.0,40.0,,1.0,1.0,,37.0,12.0,6.0,10.0,1.0,,
3150,PATRAS CHRBROILED BURGERS NO 3,508 E WASHINGTON BLVD,58,34.0287,118.2601,,,,,1.0,,3.0,,,,,,,,,,,,,,,,,,,,,,3.0,,,,
3155,PATTAYA BAY INC,1727 N VERMONT AVE,58,34.1023,118.2919,,,,,2.0,,4.0,6.0,,1.0,,,3.0,,,,,,,,3.0,3.0,,,1.0,,,1.0,6.0,,1.0,1.0,
3160,PEAZN AND LOVE,6333 W 3RD ST,58,34.0714,118.3598,,1.0,21.0,1.0,13.0,4.0,38.0,47.0,,,,,,,,2.0,,,,,3.0,5.0,,,3.0,,,,3.0,,,1.0,1.0
3174,PIG BAR B QUE RESTAURANT,612 N LA BREA AVE,58,34.082,118.3438,,,,,,,3.0,,,,,,,,,,,,,,,,,,1.0,,,,,,1.0,,
3188,PINK TACO,10250 SANTA MONICA BLVD,58,34.06,118.4197,1.0,6.0,16.0,1.0,151.0,13.0,55.0,129.0,1.0,1.0,1.0,,1.0,4.0,,,,,,,23.0,18.0,,3.0,5.0,,2.0,3.0,4.0,,2.0,,3.0
3237,PUPUSERIA SAN SEBASTIAN,2705 W PICO BLVD,58,34.0473,118.2974,,,1.0,,,,1.0,,,,,,,,,,,,,,,,,,,,,,,,,,
3242,QUE RICO MANAGEMENT INC,712 N VERMONT AVE,58,34.0838,118.2916,,,,,,,1.0,,,,,,,,,,,,,,,,,,,,,,,,,,
3250,ASIAN YA SOY BOY,11660 GATEWAY BLVD,58,34.029,118.4428,,,,,,,2.0,,,,,,,,,1.0,,,,,,1.0,,,1.0,,,,,,,,
3312,RIPS RIBS AND THINGS,8923 S SAN PEDRO ST,58,33.9552,118.2696,1.0,,,,,,3.0,,,,,,,,,,,,,,,,,,,,,,,,,,
3374,SABDARI GOM TANG,3470 W 6TH ST,58,34.0634,118.2972,,,5.0,1.0,1.0,2.0,14.0,3.0,,,,,,,,,,,,,1.0,1.0,,,1.0,,,3.0,,,,,
3419,SHANA LANDA SALE,110 E 9TH ST STE A988,58,34.0412,118.2548,2.0,15.0,11.0,5.0,261.0,12.0,24.0,74.0,9.0,6.0,6.0,1.0,3.0,13.0,,11.0,,,,,24.0,149.0,,4.0,2.0,,5.0,7.0,8.0,3.0,3.0,3.0,3.0
3430,VITO DI DONATO,846 N LA CIENEGA BLVD,58,34.0861,118.3763,,,,,,,6.0,1.0,,,,,,1.0,,1.0,,,,,2.0,4.0,,,,,,3.0,,,,,
3438,SHOCKWAVE CAFE,208 S HILL ST,58,34.0528,118.2478,,,,,,,3.0,,,,,,,,,,,,,,,,,,,,,,,,,,
3443,RED ROCK BAR & CAFE INC,8782 W SUNSET BLVD,58,34.091,118.3825,,,,,,,2.0,,,,1.0,,,,,,,,,,,,,,,,1.0,,,,,,
3495,GROUNDWORK COFFEE,108 W 2ND ST,58,34.051,118.2449,1.0,,1.0,,2.0,,7.0,1.0,,1.0,,,,3.0,,1.0,,,,,2.0,28.0,,1.0,2.0,,3.0,4.0,1.0,,1.0,,
3524,TACO EL CONQUISTADOR,1105 E 34TH ST,58,34.0087,118.2589,7.0,10.0,38.0,20.0,27.0,37.0,31.0,71.0,1.0,1.0,2.0,,2.0,19.0,,2.0,,,3.0,,59.0,125.0,,33.0,21.0,,6.0,13.0,13.0,5.0,7.0,21.0,
3558,TACOS LA NENA,4427 AVALON BLVD,58,34.0029,118.2654,,,2.0,,,,1.0,,,,,,,,,,,,,,,,,,,,,,,,,,
3560,BOONKRONG SOMCHAI,2912 1/2 ROWENA AVE,58,34.1083,118.2682,,,,,,,1.0,,,,,,,,,,,,,,,,,,,,,,,,,,
3564,TAMALES ALBERTO,1644 W TEMPLE ST,58,34.0683,118.2625,,,,,,,3.0,,,,,,,,,,,,,,,,,,,,,,,,,,
3565,TAQUERIA AMECA,747 S ATLANTIC BLVD,58,34.0264,118.1532,2.0,7.0,26.0,28.0,35.0,26.0,45.0,54.0,3.0,3.0,1.0,1.0,7.0,30.0,,2.0,,,2.0,,44.0,138.0,,39.0,40.0,,3.0,6.0,33.0,6.0,8.0,17.0,
3566,TAQUERIA JALISCO NO 2,722 N WESTERN AVE,58,34.0837,118.3089,,1.0,1.0,,2.0,,1.0,1.0,,,,,,,,,,,,,1.0,,,,,,,,,,,,
3567,TAQUERIA LOS COMPAS,2718 W 7TH ST,58,34.0593,118.2836,,1.0,,,1.0,2.0,2.0,,,,,,,,,,,,,,1.0,,,,,,,,,,,,
3568,TAQUERIA TEPEQUE,4030 S BROADWAY,58,34.0103,118.2781,,,,,,,1.0,,,,,,,,,,,,,,,,,,,,,,,,,,
3573,TERASCOS,3801 S MAIN ST,58,34.0129,118.2741,,,,,,1.0,1.0,,,,,,,,,,,,,,,,,,,,,,,,,,
3609,TRIMANA RESTAURANT GROUP,5035 W SLAUSON AVE,58,33.9877,118.3656,,,,,,,1.0,1.0,1.0,2.0,,,,2.0,,,,,,,2.0,,,,1.0,,,1.0,,,,,
3651,VIA ITALIA PIZZA,1713 E VERNON AVE STE 115,58,34.004,118.2427,,1.0,4.0,,2.0,,8.0,1.0,2.0,,,1.0,,,,,,,,,3.0,,,,1.0,,,,2.0,,,1.0,
3710,YANUSA,2740 W OLYMPIC BLVD,58,34.0525,118.29299999999999,,,3.0,,1.0,,8.0,2.0,,,,,,,,,,,,,1.0,1.0,,,,,,,,,,,
3737,MEX CATER SERVICE,717 E 137TH ST,58,33.9074,118.26299999999999,,,,,,,1.0,,,,,,,,,,,,,,,2.0,,,,,,,,,,,
3788,TAQUERIA CHIHUAHUA,12034 VENICE BLVD,58,34.0057,118.4292,,,,,,,2.0,1.0,,1.0,,,,,,,,,,,,,,,,,,,,,,,
3814,HEYAT HALEH,10845 LINDBROOK DR,58,34.0602,118.4427,,,,,,,1.0,,,,1.0,,,,,,,,,,1.0,2.0,,,1.0,,2.0,1.0,6.0,,2.0,1.0,
3819,AMIGOS TACOS & MARISCOS,8325 S MAIN ST,58,33.965,118.274,5.0,2.0,43.0,28.0,26.0,40.0,28.0,55.0,1.0,1.0,2.0,,2.0,14.0,,5.0,,,7.0,,64.0,105.0,,63.0,35.0,,5.0,7.0,14.0,5.0,9.0,33.0,
3895,LA POBLANITA FOOD MARKET,2039 MAPLE AVE,58,34.0276,118.2628,,,,,,,1.0,,,,,,,,,,,,,,,,,,,,,,,,,,
3918,OCEAN JEWELS SEAFOOD INC,556 TOWNE AVE,58,34.0419,118.2427,,,,,,,2.0,,,,,,,,,1.0,,,,,,,,,,,,,,,,,
3949,BAJA FRESH,7917 W SUNSET BLVD,58,34.0981,118.3619,,,,,,,2.0,,,,,,,,,1.0,,,,,,,,,,,,,,,,,
4021,KEN CATER SERVICE,11401 S CENTRAL AVE,58,33.9308,118.2544,,,,,,,1.0,,,,,,,,,,,,,,,,,,,,,,,,,,
4051,BURGER KING-12312,304 W CENTURY BLVD,58,33.9454,118.2786,,,,,,,3.0,,,,,,,,,,,,,,,,,,,,,,,1.0,,,
4067,CAFE STELLA,3932 W SUNSET BLVD,58,34.0921,118.2802,,,1.0,,1.0,,1.0,1.0,,,,,,,,1.0,,,,,,1.0,,1.0,,,2.0,,2.0,,,,
4103,POLKA LTDCO,4112 VERDUGO RD,58,34.1253,118.2316,,,1.0,,,,5.0,,,,,,,,,,,,,,3.0,,,,,,1.0,,2.0,,,1.0,
4122,CHICHENITZA RESTAURANT,3655 S GRAND AVE STE C6,58,34.0177,118.2778,,,3.0,,1.0,,8.0,4.0,,,,1.0,,2.0,,,,,,,3.0,2.0,,,1.0,,,,3.0,,,9.0,
4123,CHINESE EXPRESS RESTAURANT,2625 W 6TH ST,58,34.0622,118.2806,,,,,,,2.0,1.0,,,,,,,,,,,,,,1.0,,,,,,,,,,,
4173,EL MESON,2454 W PICO BLVD,58,34.0471,118.2905,,,,,,,4.0,1.0,,,,,,,,,,,,,,,,,,,,,,,,,
4184,CUBAN GRILL,3950 WILSHIRE BLVD,58,34.0616,118.3129,,,,,,,2.0,,,,,,,,,,,,,,,,,,,,,,,,,,
4206,DEL MAR RESTAURANT,4555 E 3RD ST STE 1A,58,34.0334,118.1676,,1.0,1.0,,4.0,1.0,1.0,4.0,,5.0,,,6.0,,,,,,,,5.0,1.0,,,,,,,4.0,1.0,,1.0,
4228,DIAMOND BAR,12002 S FIGUEROA ST,58,33.9236,118.2825,,,,,,,2.0,,,,,,,,,,,,,,,,,,,,,,,,,,
4245,DORIS BAKERY,2523 W TEMPLE ST,58,34.0722,118.2736,,,4.0,,,,2.0,,,,,,,,,,,,,,,2.0,,,,,,,,,,,
4246,DOS DE OROS,4148 WHITTIER BLVD,58,34.0238,118.1809,,,,,,,2.0,,,,,,,,,,,,,,,,,,,,,,,,,,
4278,EL CHANGARRO,7008 S SAN PEDRO ST,58,33.9759,118.2694,,,,,,,2.0,,,,,,,,,,,,,,,,,,1.0,,,,,,,,
4279,EL CHUBASCO DOS RESTAURANT,5137 YORK BLVD,58,34.121,118.2039,,,,,,,1.0,,,,,,,,,,,,,,,,,,,,,,,,,,
4283,EL CHEMAZAL,2211 E CESAR E CHAVEZ AVE,58,34.0478,118.2098,,,1.0,,1.0,,1.0,3.0,,,,,,,,,,,,,1.0,,,,1.0,,,,,,,,
4285,EL CIHUALTECO NO 2,7313 S BROADWAY,58,33.9734,118.2784,,,,,1.0,,1.0,,,,,,,,,,,,,,,,,,,,,,,,,,
4287,EL GAVILAN RESTAURANT,6220 S MAIN ST,58,33.983000000000004,118.2737,,,,,,,2.0,,,,,,,,,,,,,,,,,,,,,,,,,,
4288,EL INDIO AMAZONICO,630 S ALVARADO ST,58,34.0585,118.2753,,,,,,,1.0,,,,,,,,,,,,,,,,,,,,,,,,,,
4295,EL TROPICAL SNACK BAR,2650 E OLYMPIC BLVD,58,34.0246,118.221,,2.0,,,1.0,1.0,1.0,4.0,,,1.0,,,,,,,,,,3.0,1.0,,,,,,,2.0,,,,
4340,EZAKAYA RESTAURANT,4451 BEVERLY BLVD,58,34.0763,118.3056,,,,,,,2.0,,,,,,,,,,,,,,,2.0,,,,,,,,,,,
4390,ESCALERA ART,423 S WESTMRLND AVE AP309,58,34.0663,118.2885,,,,,,,1.0,,,,,,,,,,,,,,,1.0,,,,,,,,,,,
4442,DERRICKS JMAICAN CUISINE CATRG,6806 LA TIJERA BLVD,58,33.977,118.3719,,,,,,,2.0,,,,,,,2.0,,,,,,,,,,,,,,,,,,,
4473,DAEGA RESTAURANT,4574 BEVERLY BLVD,58,34.0761,118.3087,,,,,,,4.0,,,,,,,,,,,,,,,,,,,,,,,,,,
4498,GRACIELA RESTAURANT,2553 W PICO BLVD,58,34.0474,118.2931,,,,,,1.0,2.0,,,,,,,,,,,,,,,1.0,,,,,,,,,,,
4532,CICCEROS PIZZA,11651 W PICO BLVD,58,34.032,118.4451,,,,,,5.0,2.0,,,,,,,,,,,,,,,1.0,,,1.0,,,,,,,,
4556,MI TIERRA RESTAURANT,2423 DALY ST,58,34.074,118.2157,,,,,,,1.0,1.0,,,,,,,,,,,,,,,,,,,,,,,,,
4598,GABAH,4658 MELROSE AVE,58,34.0834,118.302,,,,,,1.0,2.0,1.0,,,1.0,,,,,,,,,,2.0,2.0,,,1.0,,,,1.0,,,,
4601,GANDA SIAMESE CUISINE,5269 HOLLYWOOD BLVD,58,34.1018,118.3054,,,1.0,,,,6.0,,,,,,1.0,,,,,,,,2.0,,,,,,,,,,,,
4649,HWANG HAE DOH RESTAURANT,1100 S SAN PEDRO ST,58,34.035,118.2521,1.0,,,,101.0,1.0,3.0,15.0,1.0,,,,,7.0,,1.0,,,,,4.0,22.0,,,,,,1.0,2.0,,,1.0,
4651,HYUN HEA TAN RESTAURANT,1101 S VERMONT AVE,58,34.0506,118.2917,,1.0,1.0,,1.0,4.0,4.0,2.0,1.0,,,1.0,,,,,,,,,3.0,6.0,,,1.0,,,6.0,4.0,2.0,,,
4672,INK,8360 MELROSE AVE STE 101,58,34.0835,118.3723,,,1.0,,1.0,,5.0,2.0,,,,,,1.0,,,,,,,,6.0,,1.0,,,1.0,1.0,,,1.0,,
4680,J C GROCERIES,1255 PRODUCE ROW,58,34.0337,118.2443,,,4.0,,,,1.0,,,,,,,,,,,,,,,,,,,,,,,,,,
4820,ANGELINOS PIZZA,2201 W WASHINGTON BLVD,58,34.04,118.3091,,,,,,,1.0,,,,,,,,,,,,,,,,,,,,,,,,,,
4821,ITALIANOS RESTAURANTS,5144 YORK BLVD,58,34.1207,118.2038,,,,,,,1.0,,,,,,,,,,,,,,,,,,,,,,,,,,
4878,JACKYS RESTAURANT,310 W 5TH ST,58,34.0481,118.2511,,,1.0,,,,1.0,,,,,,,,,,,,,,,,,,,,,,,,,,
4901,COMBOS PIZZA,6760 HOLLYWOOD BLVD,58,34.1014,118.3377,,,,,1.0,,2.0,1.0,,,,,,,,,,,,,,,,,2.0,,,,,,,,
4925,JERSEY MIKES SUBS,1517 VINE ST,58,34.0997,118.3272,1.0,2.0,15.0,11.0,44.0,20.0,51.0,76.0,9.0,6.0,3.0,,4.0,15.0,,6.0,,,8.0,,37.0,140.0,,18.0,10.0,,54.0,30.0,8.0,8.0,7.0,9.0,2.0
4968,VINAGRETTES LLC,126 GLENDALE BLVD,58,34.0626,118.2595,,,,,,,1.0,,,,,,,,,,,,,,,,,,,,,,,,,,
5002,SNACK ATTACK,110 N GRAND AVE,58,34.0559,118.2483,,,,,,,2.0,,1.0,,,,,,,,,,,,,,,,,,,,,1.0,,,
5020,LUNCH TO LATENITE CORPORATION,4348 FOUNTAIN AVE,58,34.0956,118.2844,,,,,,,2.0,,,,,,,,,,,,,,,,,,,,,,,,,,
5034,MARISCOS NAYARIT,7324 S SAN PEDRO ST,58,33.9735,118.2694,,,,,,,2.0,,,,,,,,,,,,,,,,,,,,,,,,,,
5077,OCHOA CLASSIC,835 S VERMONT AVE,58,34.0569,118.2918,,,,,,,2.0,,,,,,,,,,,,,,,,,,,,,,,,,,
5087,QUIZNOS SUBS,1225 E WASHINGTON BLVD,58,34.0249,118.251,,1.0,1.0,,,2.0,1.0,,,,,,,,,,,,,,,,,,,,,,,,,,
5095,RESTAURANT EVAS,2100 E CESAR E CHAVEZ AVE,58,34.0482,118.2114,,,1.0,,,,3.0,,,,,,,,,,,,,,,,,,,,,,,,,,
5152,SWEETER LA CODE 7 CAF,7700 S BROADWAY,58,33.9697,118.2781,,,,,,,1.0,,,,,,1.0,,,,,,,,,2.0,,,,,,,,,,,
5157,SANTOYO CAFETERIA,120 S SPRING ST,58,34.0525,118.2446,,,,,,,3.0,,,,,,,,,,,,,,,,,,,,,,1.0,,,1.0,
5169,CAROLINA RESTAURANT GROUP INC,6011 N FIGUEROA ST,58,34.1113,118.1895,,,,,,,3.0,,,,,,,,,,,,,,,,,,1.0,,,,,,,,
5178,CHANOS DRIVE INN,3831 BEVERLY BLVD,58,34.0763,118.2928,,,1.0,,,,3.0,,,,,,,,,,,,,,,,,,,,,,,,,,
5187,CIRXA BISTRO,3719 W SUNSET BLVD,58,34.0907,118.2779,,,,,,,3.0,,,,,,,,,,,,,,,1.0,,,1.0,,1.0,,,,,,
5191,THOMAS RESTAURANT ENTPS LLC,355 S GRAND AVE STE 4500,58,34.0524,118.25200000000001,1.0,,2.0,,1.0,,3.0,2.0,8.0,3.0,7.0,1.0,2.0,28.0,,36.0,,,,,1.0,26.0,,4.0,,,6.0,3.0,6.0,61.0,8.0,,
5228,EL RANCHITO,3401 S MAIN ST,58,34.0185,118.2728,,,,,,,1.0,,,,,,,,,,,,,,,,,,,,,,,,,,
5253,UNI SNACK SHOP,530 E 8TH ST,58,34.0397,118.2502,,,1.0,,4.0,,1.0,2.0,,,,,,2.0,,,,,,,1.0,4.0,,,,,,,,,,,
5298,TACOS EL GAVILAN INC,1900 S CENTRAL AVE,58,34.0242,118.2505,,,,,,,2.0,,,,1.0,,,,,,,,,,,,,,,,,,,,,,
5322,VEGAN EXPRESS,3217 CAHUENGA BLVD W,58,34.1285,118.3476,2.0,,,,,1.0,3.0,,,,,,,,,,,,,,,3.0,,,,,6.0,2.0,,,,,
5324,VANADZOR RESTAURANTS,4655 HOLLYWOOD BLVD,58,34.1005,118.2905,,,,,,,3.0,,,,,,,,,,,,,,1.0,,,,,,,,,,,,
5450,WORLD CAFE,8475 MELROSE PL,58,34.0837,118.3757,,,,,1.0,,4.0,2.0,,,,,,,,1.0,,,,,2.0,,,,,,,,2.0,,,,
5462,GAM J GOL,3003 W OLYMPIC BLVD,58,34.0527,118.3008,,,1.0,,2.0,1.0,3.0,6.0,,,,,,,,,,,,,4.0,1.0,,,1.0,,,1.0,4.0,,1.0,,
5500,FOODCOURT,327 S BROADWAY,58,34.0505,118.2485,,,,,,,2.0,,,,,,,,,,,,,,,,,,,,,,,,,,
5506,HONDURENOS GLORIA ANTOJITOS,2701 S VERMONT AVE,58,34.0303,118.2917,,,,,1.0,,6.0,,,,,,,,,,,,,,3.0,2.0,,,1.0,,1.0,1.0,2.0,,,,
5606,CASA NOODLE TERIYAKI 2,4710 FOUNTAIN AVE,58,34.0953,118.2921,,,,,,,3.0,,,,,,,,,,,,,,1.0,,,,,,,,,,,,
5620,JEFTYS STUDIO EAST,12817 AVALON BLVD,58,33.9162,118.2654,,,,,1.0,,1.0,,,,,,2.0,,,,,,,,3.0,5.0,,,1.0,,,,,,1.0,,
5649,CARRIEDELLS SOUL FOOD,3403 CRENSHAW BLVD,58,34.0253,118.3352,,,,,,,2.0,,,,,,,,,,,,,,,,,,,,,,,,,,
5710,MI HAIR LOUNGE INC,5001 WILSHIRE BLVD,58,34.0622,118.3386,1.0,,2.0,,1.0,1.0,10.0,3.0,,,,1.0,1.0,,,3.0,,,,,14.0,11.0,,,2.0,,,5.0,11.0,,1.0,,
5766,MELS DRIVE IN,8585 W SUNSET BLVD,58,34.0928,118.3789,,,,,,,2.0,,,,,,,,,,,,,,,,,,,,,,,,,,
5832,LOSAMIGOS TACOS,274 E SLAUSON AVE,58,33.989000000000004,118.2699,,,,,,,3.0,,,,,,,,,,,,,,,,,,,,,,,,,,
5837,M I JACALITO,4402 HUNTINGTON DR S,58,34.0817,118.19,,,,,,,2.0,,,,,,,,,,,,,,,1.0,,,,,,,,,,,
5881,OCHA CLASSIC RESTAURANTI,5189 W SUNSET BLVD,58,34.1061,118.291,2.0,2.0,8.0,11.0,27.0,29.0,41.0,67.0,3.0,2.0,3.0,,5.0,29.0,,13.0,,,1.0,,58.0,347.0,,20.0,32.0,,55.0,39.0,56.0,12.0,12.0,12.0,2.0
5944,CHIPOTLE MEXICAN GRILL INC,7101 MELROSE AVE,58,34.1066,118.3637,3.0,1.0,14.0,9.0,55.0,45.0,40.0,151.0,2.0,2.0,8.0,,12.0,31.0,,17.0,,,,,100.0,420.0,,20.0,36.0,,152.0,58.0,45.0,17.0,10.0,15.0,2.0
5948,CALIFORNIA GOURMET KITCHEN,400 WORLD WAY,58,33.9433,118.4082,,,,,1.0,,1.0,1.0,,,,,,,,,,,,,,,,,,,,,,,1.0,,
6016,KATSUYA HOLLYWOOD,6300 HOLLYWOOD BLVD,58,34.0997,118.3272,1.0,2.0,15.0,11.0,44.0,20.0,51.0,76.0,9.0,6.0,3.0,,4.0,15.0,,6.0,,,8.0,,37.0,140.0,,18.0,10.0,,54.0,30.0,8.0,8.0,7.0,9.0,2.0
6099,K & I RESTAURANT INC,288 S ATLANTIC BLVD,58,34.0264,118.1532,2.0,7.0,26.0,28.0,35.0,26.0,45.0,54.0,3.0,3.0,1.0,1.0,7.0,30.0,,2.0,,,2.0,,44.0,138.0,,39.0,40.0,,3.0,6.0,33.0,6.0,8.0,17.0,
6213,SHIN SA DONG RESTAURANT,3470 W 6TH ST STE 6,58,34.0634,118.2972,,,5.0,1.0,1.0,2.0,14.0,3.0,,,,,,,,,,,,,1.0,1.0,,,1.0,,,3.0,,,,,
6228,WENDYS TORTAS,2700 N BROADWAY,58,34.0735,118.2141,1.0,3.0,2.0,,17.0,5.0,4.0,8.0,,,,,,1.0,,,,,,,,3.0,,,,,,,1.0,,,1.0,
6332,SUSHI DAN,8000 W SUNSET BLVD,58,34.0978,118.3651,,,2.0,1.0,2.0,1.0,8.0,2.0,,,,,,2.0,,1.0,,,,,12.0,4.0,,1.0,,,8.0,6.0,2.0,,,,
6422,COSTA VERDE RESTAURANT,5509 HOLLYWOOD BLVD,58,34.1018,118.3096,,,,,,1.0,1.0,3.0,,,,,,,,,,,,,,,,,,,,,,,,,
6429,YOGURTLAND,2130 SAWTELLE BLVD,58,34.0387,118.4415,,,4.0,,2.0,,7.0,10.0,,,,,1.0,2.0,,,,,,,8.0,10.0,,2.0,,,4.0,4.0,4.0,,1.0,,
6481,PATINA RESTAURANT,141 S GRAND AVE,58,34.0629,118.2381,1.0,5.0,16.0,5.0,27.0,13.0,48.0,71.0,11.0,1.0,4.0,1.0,7.0,19.0,,5.0,,,,,16.0,68.0,,9.0,30.0,,5.0,17.0,19.0,15.0,3.0,6.0,4.0
6489,HONAGH LE,2385 COLORADO BLVD,58,34.14,118.2186,,,,,,,2.0,,,,,,,,,,,,,,,,,,,,,,,,,,
6494,FUSION CUISINE LLC,3420 FEDERAL AVE APT 3,58,34.0011,118.4303,5.0,1.0,28.0,18.0,19.0,38.0,42.0,104.0,1.0,2.0,5.0,,14.0,44.0,,12.0,,,3.0,,65.0,444.0,,24.0,35.0,,59.0,36.0,59.0,13.0,13.0,17.0,1.0
6629,ANGRY CHEF INC,350 S FIGUEROA ST,58,34.0544,118.2549,,,3.0,2.0,3.0,2.0,7.0,9.0,8.0,4.0,2.0,,4.0,16.0,,12.0,,,,,4.0,40.0,,2.0,2.0,,2.0,3.0,3.0,30.0,5.0,2.0,
6701,OPEN RICE RESTAURANT INC,750 N HILL ST STE F,58,34.0617,118.2398,,,1.0,,,,9.0,2.0,,,,,,1.0,,,,,,,1.0,1.0,,,,,,,1.0,,,,
6734,NIGHT TAP,1360 ROXBURY DR APT 4,58,34.0545,118.4023,,,,,,,2.0,,,,,,,,,,,,,,1.0,,,,,,,,,,,,
6812,HIGHLAND CAFE,238 S SERRANO AVE APT 303,58,34.0702,118.3065,,,,,,,1.0,,,,,,,,,,,,,,,3.0,,,,,,,,,,,
6815,ROBERT SUB INC,10511 ASHTON AVE APT 303,58,34.0634,118.4313,,,,,1.0,,1.0,,,,,,,1.0,,,,,,,1.0,5.0,,,,,,,,,,,
6838,HOT DOG HEADQUARTERS,3103 DALTON AVE,58,34.0263,118.3042,,,,,,,1.0,,,,,,,,,,,,,,,,,,,,,,1.0,,,,
6880,NANEY GLORIAS FAST FOOD,3756 WEST AVE 40 STE L,58,34.1195,118.2279,,,5.0,,,3.0,7.0,4.0,1.0,,,,,,,,,,,,2.0,3.0,,,2.0,,1.0,1.0,4.0,,,,
6888,YUMMYS,480 S ROBERTSON BLVD,58,34.073,118.3719,3.0,2.0,12.0,6.0,40.0,55.0,54.0,84.0,3.0,3.0,9.0,,9.0,50.0,,20.0,,,4.0,,76.0,247.0,,8.0,30.0,,67.0,25.0,55.0,23.0,9.0,13.0,3.0
7045,SENOR FISH,422 E 1ST ST,58,34.0629,118.2381,1.0,5.0,16.0,5.0,27.0,13.0,48.0,71.0,11.0,1.0,4.0,1.0,7.0,19.0,,5.0,,,,,16.0,68.0,,9.0,30.0,,5.0,17.0,19.0,15.0,3.0,6.0,4.0
7059,CHARLEYS STEAKERY,3650 W MARTIN LUTHER KING,58,34.0114,118.3364,,,5.0,,39.0,4.0,7.0,22.0,1.0,1.0,,,,1.0,,,,,,,8.0,3.0,,,,,,1.0,1.0,,,,
7095,ONOLICIOUS HAWAIIAN BBQ LLC,1524 CARMONA AVE,58,34.0454,118.3396,11.0,5.0,18.0,22.0,38.0,43.0,47.0,117.0,2.0,6.0,5.0,1.0,4.0,34.0,,11.0,,,7.0,,88.0,350.0,,47.0,51.0,,45.0,44.0,38.0,13.0,20.0,28.0,6.0
7139,PO PO PO,870 S WESTERN AVE,58,34.0564,118.3089,,2.0,,,57.0,2.0,1.0,12.0,,,,,,,,,,,,,,3.0,,,,,,,,,,,
7148,HAWTHORNE FISH & CHICKEN,3650 W MARTN LTHR KNG JR,58,34.0205,118.3411,,,1.0,,6.0,,1.0,4.0,,,,,,,,,,,,,,,,,,,,,,,,,
7238,FUN FOOD MART & DELI,11019 S ALAMEDA ST,58,33.9351,118.2267,,1.0,2.0,,,,1.0,,,,,,,,,,,,,,,,,,,,,,,,,,
7327,GREAT KHANS MONGOLIAN FESTIVAL,3345 WILSHIRE BLVD,58,34.0619,118.2961,1.0,1.0,5.0,,5.0,1.0,7.0,10.0,1.0,11.0,1.0,1.0,26.0,32.0,,8.0,,,1.0,,5.0,48.0,,3.0,,,4.0,3.0,8.0,43.0,3.0,9.0,
7332,FATBURGER RESTAURANT,12005 WILSHIRE BLVD,58,34.0436,118.4488,3.0,,12.0,17.0,21.0,28.0,47.0,68.0,,5.0,9.0,2.0,10.0,46.0,,10.0,,,1.0,,54.0,263.0,,24.0,17.0,,49.0,40.0,47.0,28.0,14.0,11.0,1.0
7381,CASA SANCHEZ,4500 S CENTINELA AVE,58,34.0011,118.4303,5.0,1.0,28.0,18.0,19.0,38.0,42.0,104.0,1.0,2.0,5.0,,14.0,44.0,,12.0,,,3.0,,65.0,444.0,,24.0,35.0,,59.0,36.0,59.0,13.0,13.0,17.0,1.0
7485,26 RESTAURANT,8657 W PICO BLVD,58,34.0542,118.3803,,,,,,,2.0,,,,,,,,,,,,,,,,,,,,,,,,,,
7494,SHINS SUSHI RESTAURANT,3680 WILSHIRE BLVD,58,34.0615,118.3058,,,,,7.0,,11.0,8.0,,,,,,2.0,,,,,,,8.0,4.0,,2.0,,,1.0,5.0,12.0,,,,
7516,SOTTO RESTAURANT,9575 W PICO BLVD,58,34.0553,118.3973,,,,,,,4.0,,,,,,,,,,,,,,,,,,,,,,,,,,
7531,HOUSE OF BOBA,5930 S MAIN ST STE 102,58,33.9864,118.2737,,,,,,,3.0,,,,,,,,,,,,,,,,,,,,,,,,,,
7568,VIVIANS MILLENIUM CAFE INC,1855 NORTH AVENUE 52,58,34.1265,118.2021,,,,,,,1.0,,,,,,,,,,,,,,,,,,,,,,,,,,
7577,TAP IT IN LLC,1360 ROXBURY DR APT 4,58,34.0545,118.4023,,,,,,,2.0,,,,,,,,,,,,,,1.0,,,,,,,,,,,,
7596,TACOS Y MARISCOS EL COMPA MENO,7215 HOOPER AVE,58,33.9746,118.2521,,,,,,,2.0,,,,,,,,,,,,,,,,,,,,,,,,,,
7693,BOSTON MARKET CORPORATION,8901 S SEPULVEDA BLVD,58,33.9557,118.3963,,,,,2.0,,3.0,,,,,,,,,1.0,,,,,1.0,5.0,,,1.0,,,1.0,,,,,
7759,VETA CARIBBEAN CUISINE,2034 S CORNING ST APT 4,58,34.0266,118.4041,4.0,1.0,14.0,20.0,31.0,39.0,30.0,67.0,1.0,6.0,2.0,2.0,3.0,36.0,,7.0,,,1.0,,50.0,311.0,,29.0,25.0,,37.0,29.0,37.0,7.0,18.0,15.0,3.0
7797,TACO BELL CORP,5801 S VERMONT AVE,58,33.9894,118.2916,,,,1.0,,,2.0,,,,,,,,,,,,,,,,,,,,,,,,,,
7805,YOUNG O JUN INDUSTRY LLC,1713 E VERNON AVE,58,34.004,118.2427,,1.0,4.0,,2.0,,8.0,1.0,2.0,,,1.0,,,,,,,,,3.0,,,,1.0,,,,2.0,,,1.0,
8042,SILENTARENA INC,12100 WILSHIRE BLVD STE 8,58,34.0438,118.4675,,,2.0,2.0,1.0,6.0,14.0,11.0,2.0,9.0,16.0,2.0,10.0,94.0,,47.0,,,,,5.0,98.0,,,1.0,,43.0,18.0,13.0,131.0,3.0,1.0,
8135,MARTITAS MEXICAN RESTAURANT,2657 PASADENA AVE,58,34.0773,118.2156,,,,,,,1.0,,,,,,,,,,,,,,,,,,1.0,,,,,,,1.0,
8481,SUSHI KOO,8474 W 3RD ST,58,34.0731,118.3758,1.0,,,,1.0,,2.0,3.0,,,,,,,,,,,,,10.0,7.0,,1.0,,,,1.0,3.0,1.0,,,
8499,CILANTRO FRESH MXICAN GRILL EX,330 S HOPE ST,58,34.0532,118.2525,,,4.0,,,,15.0,4.0,1.0,,,,,,,,,,,,2.0,3.0,,,2.0,,1.0,,,,,,
8556,THAI PEPPER RESTAURANT,6219 FRANKLIN AVE,58,34.1053,118.3241,,,,1.0,,,4.0,2.0,,,,,,,,,,,,,1.0,1.0,,2.0,,,2.0,1.0,,,,,
8578,TOLOT ERMANNO,225 HALF N LARCHMONT BLVD,58,34.0749,118.3237,,,,,2.0,,2.0,,,,,,,,,,,,,,,,,,,,,,,,,,
8584,HOISIN BOYS RESTAURANT,2004 SAWTELLE BLVD,58,34.0409,118.4434,,,,,,,6.0,,,,,,,,,,,,,,,,,,,,,,,,,,
8653,DILLONS IRISH PUB & GRILL,6263 HOLLYWOOD BLVD,58,34.1017,118.3261,,,,,,,3.0,,,,,,,,,,,,,,,,,,,,,,,,,,
8669,UNIQUE CATERING,666 S LA BREA AVE,58,34.063,118.3438,,,,,1.0,,1.0,,,,,,,1.0,,,,,,,2.0,5.0,,,,,,1.0,1.0,,,,
8688,BAR HAMA,11300 NEBRASKA AVE,58,34.0436,118.4488,3.0,,12.0,17.0,21.0,28.0,47.0,68.0,,5.0,9.0,2.0,10.0,46.0,,10.0,,,1.0,,54.0,263.0,,24.0,17.0,,49.0,40.0,47.0,28.0,14.0,11.0,1.0
8699,MIDDLE EAST CLUB,1707 N KENMORE AVE,58,34.1019,118.2973,,,,,1.0,,2.0,,,,,,,,,,,,,,1.0,,,,,,,,,,,,
8715,DRAGERS WILTERN SPT PUB GRILL,3800 WILSHIRE BLVD,58,34.0615,118.3092,,,,,,,2.0,,1.0,,1.0,,,1.0,,1.0,,,,,2.0,1.0,,,,,,,3.0,,,,
8781,PA ORD NOODLES,5301 W SUNSET BLVD STE 8,58,34.0982,118.3057,,,3.0,,2.0,1.0,3.0,5.0,,,,,,,,,,,,,4.0,1.0,,,,,,1.0,1.0,,,,
8969,SUBWAY SANDWICHES & SALADS,1075 N WSTN AVE STE 108,58,34.0909,118.2876,,,,,1.0,,3.0,,,1.0,,,1.0,,,,,,,,1.0,1.0,,,,,1.0,,7.0,,,,
8972,ROWDY RED WINE & BURGER BAR,515 S FLOWER ST FL 36,58,34.0514,118.2563,1.0,,2.0,6.0,3.0,2.0,6.0,9.0,8.0,4.0,11.0,1.0,21.0,46.0,,47.0,,,1.0,,4.0,76.0,,4.0,1.0,,4.0,7.0,8.0,49.0,2.0,4.0,
8973,DONG ROO,3055 W 7TH ST,58,34.0598,118.2905,,,2.0,,,,2.0,,,,,,,,,,,,,,1.0,,,,,,,,,,,,
9078,MARACAS & CATERRING,3300 N BROADWAY,58,34.0736,118.2063,,,,,,,3.0,1.0,,,,,,,,,,,,,2.0,1.0,,,,,1.0,,,,,,
9128,METRO BALDERAS RESTAURANT INC,5305 N FIGUEROA ST,58,34.1071,118.198,,,,,,,2.0,,,,,,,,,,,,,,,,,,,,,,,,,,
9170,MALBEC RESTAURANTS INC,1632 COLORADO BLVD,58,34.1392,118.2023,,,1.0,,,,2.0,,,,,,,,,,,,,,,,,,,,,,1.0,,,,
9185,KOBA BAR B Q,11267 NATIONAL BLVD,58,34.0266,118.4308,,,,,1.0,,7.0,,,,1.0,,,,,,,,,,7.0,2.0,,1.0,,,,,,,1.0,1.0,
9193,KAEW THAI CHINESE RESTAURANT,1924 W OLYMPIC BLVD,58,34.0507,118.27799999999999,,,,,,1.0,2.0,1.0,2.0,,,,,,,,,,,,1.0,4.0,,,1.0,,1.0,1.0,,,,,
9274,LITTLE CAESARS PIZZA,10315 AVALON BLVD,58,33.965,118.274,5.0,2.0,43.0,28.0,26.0,40.0,28.0,55.0,1.0,1.0,2.0,,2.0,14.0,,5.0,,,7.0,,64.0,105.0,,63.0,35.0,,5.0,7.0,14.0,5.0,9.0,33.0,
9310,CABBAGE PATCH,12531 BEATRICE ST,58,34.0011,118.4303,5.0,1.0,28.0,18.0,19.0,38.0,42.0,104.0,1.0,2.0,5.0,,14.0,44.0,,12.0,,,3.0,,65.0,444.0,,24.0,35.0,,59.0,36.0,59.0,13.0,13.0,17.0,1.0
9337,EL SALSABOR RESTAURANT,2262 VENICE BLVD,58,34.048,118.2932,4.0,5.0,28.0,13.0,32.0,26.0,31.0,60.0,2.0,2.0,1.0,,8.0,18.0,,5.0,,,3.0,,61.0,122.0,,13.0,38.0,,6.0,10.0,32.0,2.0,5.0,2.0,
9350,BIRRIERIA CARDENAS,1764 NADEAU ST,58,33.9672,118.2417,,,,,,,1.0,,,,,,,,,,,,,,,,,,,,,,,,,,
9461,LANCE JAY RBBINS PALOMA PARTNR,,58,34.0996,118.3261,,,,1.0,2.0,5.0,1.0,3.0,,,,,,4.0,,3.0,,,1.0,,6.0,25.0,,1.0,,,19.0,6.0,5.0,2.0,1.0,2.0,
9467,MAGIC GRIDDLES INC,523 W 6TH ST,58,34.0483,118.2544,,,3.0,2.0,4.0,1.0,4.0,18.0,2.0,3.0,6.0,2.0,5.0,22.0,,12.0,,,,,5.0,46.0,,1.0,1.0,,4.0,2.0,23.0,84.0,2.0,,
9579,T2 TACOS,7101 W MANCHESTER AVE,58,33.9599,118.4168,,,,,,,3.0,,,,,,,,,,,,,,,,,,,,,,,,,,
9581,ANTIGUA BREAD,5597 HUNTINGTON DR N,58,34.0809,118.1734,2.0,1.0,20.0,15.0,13.0,10.0,23.0,45.0,,2.0,1.0,,2.0,12.0,,2.0,,,2.0,,32.0,122.0,,25.0,40.0,,7.0,6.0,10.0,2.0,4.0,9.0,
9606,QUEEN JAMES,3355 WILSHIRE BLVD APT 11,58,34.0619,118.2968,,,,,4.0,1.0,3.0,2.0,,,,,,1.0,,,,,,,4.0,4.0,,,,,4.0,3.0,,,,,
9620,ORANCY CHICKEN,928 S WESTERN AVE STE 125,58,34.0548,118.3089,,,7.0,,70.0,5.0,23.0,39.0,1.0,,,,1.0,3.0,,2.0,,,,,11.0,8.0,,1.0,,,1.0,,5.0,,,,
9645,GARDEN FRESH RESTAURANT CORP,2921 LOS FELIZ BLVD,58,34.1263,118.2634,,,2.0,,,,7.0,,,,,,,,,,,,,,,,,,,,,,,,,,
9675,TOSCANOVA RESTAURANT,10250 SANTA MONICA BLVD,58,34.06,118.4197,1.0,6.0,16.0,1.0,151.0,13.0,55.0,129.0,1.0,1.0,1.0,,1.0,4.0,,,,,,,23.0,18.0,,3.0,5.0,,2.0,3.0,4.0,,2.0,,3.0
9677,EL POLLON PERUVIAN RESTAURANT,5100 E BEVERLY BLVD,58,34.0332,118.1557,,,,,,,3.0,,,,,,,,,,,,,,,,,,,,,,,,,,
9707,JIN HUNG GAK,928 S WESTERN AVE,58,34.0548,118.3089,,,7.0,,70.0,5.0,23.0,39.0,1.0,,,,1.0,3.0,,2.0,,,,,11.0,8.0,,1.0,,,1.0,,5.0,,,,
9741,GUILD SERVICES,611 W 7TH ST,58,34.0475,118.2567,,,,,,1.0,5.0,1.0,,,,,1.0,1.0,,1.0,,,,,1.0,6.0,,,,,,,,4.0,1.0,,
9775,VINTAGE ENOTECA,7554 W SUNSET BLVD,58,34.0978,118.3541,,,,,,1.0,4.0,,,,,,,,,,,,,,,1.0,,,,,1.0,,,,,,
9805,MARIA GARCIA,851 NEW DEPOT ST APT 3,58,34.0647,118.2444,,,,,,,1.0,,,,,,,,,,,,,,,1.0,,,,,,,,,,,
9832,CLEO,1717 VINE ST,58,34.1018,118.3268,,,,,,,1.0,,,,,,,,,,,,1.0,,4.0,,,2.0,,,,1.0,1.0,,,,
9920,YASIKNARA CO,530 S OCCIDENTAL BLVD,58,34.0627,118.2768,1.0,4.0,12.0,5.0,13.0,4.0,27.0,24.0,4.0,,,,7.0,24.0,,2.0,,,,,32.0,54.0,,2.0,12.0,,2.0,4.0,40.0,13.0,6.0,7.0,
9962,MANORC DESIGN,2029 MEADOW VALLEY TER,58,34.098,118.2719,,,,,,,1.0,,,,,,,,,,,,,,,1.0,,,,,,,,,,,
9998,LA PIZZA LOCA,1883 DALY ST STE 105,58,34.0656,118.2155,,1.0,4.0,,,,3.0,2.0,,,,,,,,,,,,,1.0,,,,1.0,,1.0,1.0,,,,,
9999,JAVA TWIST,3540 WILSHIRE BLVD,58,34.0615,118.3018,1.0,2.0,9.0,1.0,10.0,8.0,11.0,24.0,1.0,24.0,6.0,4.0,15.0,35.0,,23.0,,,2.0,,18.0,116.0,,4.0,3.0,,3.0,13.0,67.0,89.0,10.0,12.0,2.0
10093,KENNYS Q BARBECUE & CATERING,3622 W JEFFERSON BLVD,58,34.0254,118.3359,,,2.0,,1.0,2.0,3.0,4.0,,,,,,,,,,,,,3.0,1.0,,,1.0,,1.0,,,,1.0,1.0,
10132,BIBI,2400 W 7TH ST STE 101,58,34.0577,118.28,,2.0,3.0,,2.0,1.0,2.0,,,,,,,1.0,,,,,,,2.0,,,,,,,1.0,6.0,,,,
10235,KFC,1601 CRENSHAW BLVD,58,34.0446,118.3286,,,,,,,1.0,,,,,,,,,,,,,,,1.0,,1.0,1.0,,,,,,,,
10259,REEL FOOD PRODUCTIONS,8564 SATURN ST,58,34.0517,118.3778,,,,,,,1.0,,,,,,,,,,,,,,1.0,1.0,,,,,,,,,,,
10275,SILVERLAKE COFFEE CO,2388 GLENDALE BLVD STE B,58,34.0997,118.259,,,,,,,1.0,1.0,,,,,,,,,,,,,,,,,,,,,,,,,
10384,UNION RESTAURANT & LOUNGE LLC,3410 LOWRY RD,58,34.1146,118.2787,,,,,,,1.0,,,,,,,,,,,,,,,2.0,,,,,,,,,,,
10514,A & T BURGERS II,9401 AVALON BLVD,58,33.9509,118.2653,,,,,,,3.0,,,,,,,,,,,,,,,,,,,,,,,,,,
10645,ON DAL JAPANESE RESTAURANT INC,377 N WESTERN AVE,58,34.0778,118.3093,1.0,,,,1.0,2.0,4.0,2.0,,1.0,,,,4.0,,,,,,,3.0,5.0,,,1.0,,,,1.0,,2.0,,
10715,MOUSTACHE CAFE A LTD PARTNR,8155 MELROSE AVE,58,34.0838,118.3674,,,,,,,2.0,,,,,,,,,,,,1.0,,,,,,1.0,,,,,,,,
10716,BASKIN-ROBBINS,11658 WILSHIRE BLVD,58,34.0499,118.46,,,,,,,1.0,,,,,,,,,,,,,,,,,,,,,,1.0,,,,
10802,DELLA TERRA,7675 BEVERLY BLVD,58,34.0762,118.3568,,,,,,,1.0,1.0,,,,,,,,,,,,,1.0,1.0,,,,,,1.0,,,,,
10877,CELEBRITIES EVENTS,1800 CENTURY PARK E,58,34.0628,118.4155,,,2.0,1.0,1.0,2.0,4.0,11.0,5.0,8.0,14.0,,4.0,19.0,,19.0,,,1.0,,5.0,63.0,,2.0,,,25.0,22.0,10.0,94.0,3.0,2.0,
10938,CARLOS GARCIA,840 N RAMPART BLVD,58,34.0791,118.2597,6.0,5.0,35.0,14.0,40.0,39.0,50.0,106.0,2.0,2.0,3.0,2.0,9.0,41.0,,6.0,,,3.0,,57.0,373.0,,22.0,83.0,,50.0,35.0,40.0,21.0,7.0,18.0,2.0
10947,A & W RESTAURANTS INC,8522 BEVERLY BLVD 866,58,34.0759,118.37700000000001,,,,,36.0,3.0,8.0,25.0,,,,,,1.0,,,,,,,,1.0,,,,,1.0,1.0,1.0,,,,
10957,MCDONALDS,1210 S SOTO ST,58,34.0259,118.1958,4.0,5.0,13.0,20.0,14.0,10.0,17.0,32.0,1.0,1.0,1.0,,1.0,7.0,,2.0,,,,,17.0,73.0,,45.0,41.0,,4.0,5.0,21.0,3.0,4.0,7.0,1.0
10964,CHOIGANEI RESTAURANT,3916 WILSHIRE BLVD,58,34.0615,118.3119,,,,,,,2.0,,,,,,,,,,,,,,,,,,,,,,,,,,
11081,HANKOOK BBQ INC,901 S VERMONT AVE,58,34.0558,118.2917,,,,,,,4.0,,,,,,,,,,,,,,,,,,,,,,,,,,
11087,GUSTO,8432 W 3RD ST,58,34.073,118.3744,,,,,1.0,,2.0,,,,,,,,,,,,1.0,,4.0,,,,,,,,,,,,
11173,DOMINOS PIZZA,5151 W PICO BLVD STE B,58,34.0482,118.3505,,,1.0,,,,1.0,1.0,1.0,,,,,,,,,,,,2.0,,,,,,,,,,,,
11320,EMI CAFE,1961 ARGYLE AVE APT 20,58,34.1064,118.3253,,,,,,,1.0,,,,,,,1.0,,,,,,,,,,,,,2.0,,,1.0,,,
11371,TACOS AJA TORO,2530 W TEMPLE ST 1,58,34.071999999999996,118.2737,,1.0,2.0,,,,1.0,,,,,,,,,,,,,,,1.0,,,,,,,,,,,
11445,CATERING GALORE,10142 NATIONAL BLVD,58,34.0288,118.4068,,,,,,2.0,1.0,,,,,,,1.0,,,,,,,,3.0,,,,,,,,1.0,,,
11523,CHELSEA CATERING,7300 WORLD WAY W,58,33.9417,118.4216,,,,,,,1.0,,,1.0,,,,1.0,,,,,1.0,,,,,,,,,,,,,,
11533,ROCK SUGAR INCORPORATED,10250 SANTA MONICA BLVD,58,34.06,118.4197,1.0,6.0,16.0,1.0,151.0,13.0,55.0,129.0,1.0,1.0,1.0,,1.0,4.0,,,,,,,23.0,18.0,,3.0,5.0,,2.0,3.0,4.0,,2.0,,3.0
11644,R AND M SUBS INC,1013 S ALVARADO ST,58,34.0515,118.2801,,,2.0,,,,4.0,,,,,,,1.0,,,,,,,2.0,1.0,,,,,,,,,,,
11692,PUPUSERIA RESTAURANT MI PUEBLO,1341 E FLORENCE AVE APT E,58,33.9747,118.2491,10.0,9.0,20.0,25.0,17.0,29.0,34.0,59.0,1.0,,1.0,1.0,6.0,14.0,,5.0,,,6.0,,26.0,107.0,,50.0,27.0,,5.0,12.0,22.0,11.0,9.0,8.0,1.0
11703,HONG KONG EXPRESS,1407 E GAGE AVE STE A,58,33.9822,118.2497,,,1.0,,,,1.0,1.0,,,,,,,,,,,,,1.0,,,,,,,,,,,,
11812,EL BORREGO AS DE ORO,222 W SLAUSON AVE,58,33.989000000000004,118.2768,,,,,,,4.0,,,,,,,,,,,,,,,,,,,,,,,,,,
11817,CHINA WOK,342 W SLAUSON AVE,58,33.965,118.274,5.0,2.0,43.0,28.0,26.0,40.0,28.0,55.0,1.0,1.0,2.0,,2.0,14.0,,5.0,,,7.0,,64.0,105.0,,63.0,35.0,,5.0,7.0,14.0,5.0,9.0,33.0,
11836,BURGER PLANET,6225 S BROADWAY,58,33.9829,118.2784,,,,,,,3.0,,,,,,,,,1.0,,,,,,,,,,,,,,,,,
11853,TACO EL UNICO,152 W MANCHESTER AVE,58,33.965,118.274,5.0,2.0,43.0,28.0,26.0,40.0,28.0,55.0,1.0,1.0,2.0,,2.0,14.0,,5.0,,,7.0,,64.0,105.0,,63.0,35.0,,5.0,7.0,14.0,5.0,9.0,33.0,
11968,EL JALAPENO TAQUERIA,4165 BEVERLY BLVD,58,34.0764,118.2997,,,,1.0,,,4.0,,,,,,1.0,,,,,,,,,1.0,,,,,,,1.0,,,,
11972,MARISCOS LOS CABOS,4168 BEVERLY BLVD,58,34.0761,118.2998,,,,,,,2.0,,,,,,,,,,,,,,,1.0,,,,,,,,,,,
11975,CHINESE FOOD EXPRESS,754 S VERMONT AVE,58,34.0597,118.3013,2.0,2.0,11.0,1.0,13.0,17.0,30.0,29.0,2.0,2.0,1.0,,11.0,18.0,,4.0,,,4.0,,31.0,74.0,,6.0,12.0,,8.0,7.0,23.0,10.0,6.0,9.0,
11977,CACTUS MEXICA FOOD NO 2,4370 BEVERLY BLVD,58,34.0761,118.3039,,,,,,,1.0,,,,,,,,,,,,,,,,,,,,,,,,,,
12052,RESTAURANT JIN,3250 W OLYMPIC BLVD,58,34.0525,118.3077,,1.0,9.0,,17.0,7.0,11.0,17.0,1.0,,,,1.0,1.0,,,,,,,7.0,9.0,,,1.0,,,,6.0,,,1.0,2.0
12074,GUTIERREZ RAMON,1605 S HOOVER ST STE S104,58,34.0435,118.2843,,1.0,3.0,1.0,,1.0,1.0,1.0,1.0,2.0,,,,,,,,,,,1.0,1.0,,,,,,,1.0,,,,
12090,TACOS LOCOS,2148 VENICE BLVD,58,34.0434,118.3042,,1.0,2.0,1.0,1.0,,1.0,,,1.0,,,,,,,,,,,1.0,,,1.0,2.0,,,,,,,,
12096,EL TAPATIO,1201 VENICE BLVD,58,34.048,118.2932,4.0,5.0,28.0,13.0,32.0,26.0,31.0,60.0,2.0,2.0,1.0,,8.0,18.0,,5.0,,,3.0,,61.0,122.0,,13.0,38.0,,6.0,10.0,32.0,2.0,5.0,2.0,
12137,WING STOP,2280 S FIGUEROA ST,58,34.0309,118.274,,,,,1.0,1.0,2.0,,,1.0,,,,1.0,,,,,,,,1.0,,,,,,,,,,,
12147,HONG KONG EXPRESS,2604 S VERMONT AVE STE D,58,34.0325,118.2913,,,,,,,1.0,1.0,,,,,,,,,,,,,1.0,,,,,,1.0,,1.0,,,,
12181,WING N STUFF,3650 W M L KING JR BLVD,58,34.0176,118.3458,,,1.0,,9.0,,7.0,4.0,,,,,,,,,,,,,2.0,2.0,,,,,,2.0,1.0,,,2.0,1.0
12225,ACKEE BANBOO JAMAICAN CUISINE,4305 DEGNAN BLVD STE 100,58,34.0057,118.3315,,,2.0,,,,3.0,1.0,,,,,,,,,,,,,,1.0,,,,,,2.0,,,,5.0,
12337,MR PIZZA FACTORY,3881 WILSHIRE BLVD,58,34.0618,118.3113,,,2.0,1.0,3.0,1.0,2.0,4.0,,,1.0,,3.0,6.0,,2.0,,,,,3.0,15.0,,,2.0,,3.0,1.0,74.0,3.0,4.0,2.0,1.0
12370,A CAFE,4001 WILSHIRE BLVD STE G,58,34.0618,118.3143,1.0,,1.0,,4.0,1.0,6.0,7.0,,1.0,1.0,,,,,,,,,,2.0,2.0,,,,,,,,,,,
12463,PLAZA CAFE,711 N MAIN ST,58,34.0585,118.2378,,1.0,,,1.0,1.0,3.0,2.0,,,,,,1.0,,,,,1.0,,,5.0,,,1.0,,,1.0,,2.0,,,
12470,LA CORITA,4504 AVALON BLVD,58,34.0087,118.2589,7.0,10.0,38.0,20.0,27.0,37.0,31.0,71.0,1.0,1.0,2.0,,2.0,19.0,,2.0,,,3.0,,59.0,125.0,,33.0,21.0,,6.0,13.0,13.0,5.0,7.0,21.0,
12489,LOS ANGELES PIZZA COMPANY,1498 W SUNSET BLVD STE 2,58,34.0756,118.2551,,,1.0,,,,5.0,3.0,,,,,2.0,,,,,,,,2.0,,,,,,2.0,,5.0,,,,
12505,ACAPULCO MEXICAN RESTAURANTS,4444 W SUNSET BLVD,58,34.0977,118.2867,,,,,,,3.0,,,,,,,,,,,,,,,,,,,,,,,,,,
12525,TOKYO CAFE,116 JUDGE JOHN AISO ST,58,34.0506,118.2404,,,,,,,1.0,,,,,,,,,,,,,,,,,,,,,,,,,,
12570,APPLE CAFE,435 S LOS ANGELES ST,58,34.0466,118.2472,,,1.0,,,,1.0,1.0,,,,,,,,,,,,,,1.0,,,,,,,,,,,
12574,PUSSYFOOT BEAUTY LOUNGE,104 1/2 S CUMMINGS ST,58,34.0452,118.2149,,,,,,,1.0,,,,,,,,,,,,,,,,,,,,,,,,,,
12727,BAJA CALIFORNIA,808 WALL ST,58,34.0398,118.2504,,,,,5.0,3.0,3.0,,,,,,,1.0,,,,,,,,9.0,,,,,,,,,,,1.0
12769,JJ DELI,640 S HILL ST STE M25,58,34.0467,118.2534,,,,,4.0,1.0,2.0,69.0,,,1.0,,1.0,3.0,,3.0,,,,,3.0,17.0,,,20.0,,,,,,,1.0,
12807,BELASCO THEATER,1050 S HILL ST,58,34.0408,118.259,,,,,,,3.0,,,,,,,1.0,,,,,,,,,,,,,,,,,,,
12817,NABEYA,766 SANTEE ST,58,34.0414,118.2514,,,,,,,3.0,,,,,,,,,,,,,,,,,,,,,,,,,,
12893,HONG KONG EXPRESS,155 W WASH BLVD STE G3,58,34.0317,118.266,,,1.0,,8.0,1.0,1.0,2.0,,2.0,,,1.0,2.0,,,,,,,4.0,9.0,,,,,5.0,3.0,,1.0,1.0,,
12895,PACIFIC CONNECTIONS,1415 MAPLE AVE,58,34.0333,118.2583,,,,,2.0,,1.0,,,,,,,,,,,,,,,,,,,,,,,,,,
13022,NODA SUSHI,818 WILSHIRE BLVD STE C,58,34.0496,118.2589,,,,,,1.0,6.0,,1.0,,,,,3.0,,,,,,,,3.0,,,1.0,,1.0,,,,2.0,,
13023,FRESH GRILL,818 WILSHIRE BLVD STE B,58,34.0496,118.2589,,,,,,1.0,6.0,,1.0,,,,,3.0,,,,,,,,3.0,,,1.0,,1.0,,,,2.0,,
13025,TIERRA CAFE,818 WILSHIRE BLVD STE D,58,34.0496,118.2589,,,,,,1.0,6.0,,1.0,,,,,3.0,,,,,,,,3.0,,,1.0,,1.0,,,,2.0,,
13036,DAILY GRILL,612 S FLOWER ST,58,34.0497,118.2576,,,,,,,3.0,2.0,,,,,1.0,2.0,,1.0,,,,,,28.0,,1.0,,,3.0,3.0,1.0,1.0,,,
13038,CITY CAFE,1000 WILSHIRE BLVD LBBY,58,34.0508,118.2607,,,2.0,,2.0,,4.0,5.0,6.0,3.0,8.0,3.0,1.0,18.0,,15.0,,,1.0,,,28.0,,1.0,1.0,,13.0,7.0,11.0,48.0,,,
13091,PAMS DELI,750 W 7TH ST STE 110,58,34.0482,118.2583,1.0,2.0,5.0,,6.0,1.0,3.0,16.0,,,,,,,,,,,,,2.0,6.0,,,1.0,,,1.0,3.0,,1.0,,
13140,BEST BURGER,3533 S WESTERN AVE,58,34.0282,118.3187,9.0,1.0,20.0,14.0,28.0,17.0,22.0,44.0,1.0,2.0,2.0,,5.0,18.0,,1.0,,,2.0,,47.0,161.0,,29.0,34.0,,8.0,13.0,17.0,2.0,10.0,15.0,3.0
13170,CLUB 7080,1125 CRENSHAW BLVD,58,34.0522,118.3245,,,1.0,,1.0,,2.0,,,,,,,,,,,,,,,1.0,,,1.0,,,,,,,,
13193,CHINA WOK,1527 CRENSHAW BLVD,58,34.0454,118.3396,11.0,5.0,18.0,22.0,38.0,43.0,47.0,117.0,2.0,6.0,5.0,1.0,4.0,34.0,,11.0,,,7.0,,88.0,350.0,,47.0,51.0,,45.0,44.0,38.0,13.0,20.0,28.0,6.0
13266,HAWAIIAN BBQ HOME,3552 W 3RD ST,58,34.0664,118.31,,4.0,11.0,3.0,13.0,10.0,29.0,31.0,2.0,1.0,3.0,2.0,4.0,22.0,,6.0,,,2.0,,26.0,69.0,,2.0,10.0,,7.0,8.0,28.0,6.0,3.0,6.0,
13342,BLUE STAR,2200 E 15TH ST,58,34.0218,118.23299999999999,,,,,,,2.0,,,,,,,,,,,,,,,1.0,,,,,,,,,,,
13353,TAMALES LILIANAS,4629 E CESAR E CHAVEZ AVE,58,34.0403,118.1578,,,,,,,1.0,,,,,,,,,,,,,,,,,,,,,,1.0,,,,
13446,BON APPETIT,1801 CENTURY PARK E,58,34.0589,118.4213,2.0,1.0,5.0,5.0,5.0,10.0,7.0,14.0,7.0,13.0,34.0,,9.0,68.0,,54.0,,,1.0,,8.0,146.0,,6.0,3.0,,119.0,36.0,28.0,199.0,3.0,1.0,
13492,HONG KONG EXPRESS,3646 E OLYMPIC BLVD,58,34.0259,118.1958,4.0,5.0,13.0,20.0,14.0,10.0,17.0,32.0,1.0,1.0,1.0,,1.0,7.0,,2.0,,,,,17.0,73.0,,45.0,41.0,,4.0,5.0,21.0,3.0,4.0,7.0,1.0
13705,BENITOS TACO SHOP,11614 SANTA MONICA BLVD,58,34.0436,118.4488,3.0,,12.0,17.0,21.0,28.0,47.0,68.0,,5.0,9.0,2.0,10.0,46.0,,10.0,,,1.0,,54.0,263.0,,24.0,17.0,,49.0,40.0,47.0,28.0,14.0,11.0,1.0
13717,EN SUSHI,11651 SANTA MONICA BLVD,58,34.0442,118.4552,,,1.0,,,1.0,5.0,2.0,,,,,,,,,,,,,,,,1.0,1.0,,,,1.0,,,,
13765,WAKASAN FOOD SERVICE,1929 WESTWOOD BLVD,58,34.0476,118.4351,,,2.0,,,,1.0,,,,,,,,,,,,,,1.0,,,,1.0,,,,2.0,,,,
13768,O SUSHI,11082 SANTA MONICA BLVD,58,34.0476,118.4438,,,,,,,2.0,,,,,,,,,,,,,,,2.0,,,,,,,,,,,
13847,BEARD PAPAS SWEETS CAFE,2130 SAWTELLE BLVD,58,34.0387,118.4415,,,4.0,,2.0,,7.0,10.0,,,,,1.0,2.0,,,,,,,8.0,10.0,,2.0,,,4.0,4.0,4.0,,1.0,,
13864,PHO 99 NOODLE & GRILL,11819 WILSHIRE BLVD,58,34.0479,118.463,,,,,,,12.0,,,2.0,,,3.0,,,,,,,,2.0,2.0,,1.0,1.0,,,4.0,15.0,,1.0,,
13931,AROMA,2903 W SUNSET BLVD,58,34.0791,118.2597,6.0,5.0,35.0,14.0,40.0,39.0,50.0,106.0,2.0,2.0,3.0,2.0,9.0,41.0,,6.0,,,3.0,,57.0,373.0,,22.0,83.0,,50.0,35.0,40.0,21.0,7.0,18.0,2.0
13979,ESCOBAR MAGDA L,1263 W 2ND ST,58,34.06,118.2576,,,,,,,2.0,,,,,,,,,,,,,,,,,,,,,,,,,,
14027,DOS BURRITOS,2975 WILSHIRE BLVD,58,34.0619,118.2863,,1.0,1.0,,10.0,5.0,1.0,14.0,,5.0,3.0,2.0,3.0,12.0,,7.0,,,,,3.0,40.0,,3.0,,,5.0,4.0,26.0,17.0,14.0,2.0,
14060,FRENCH CREPE COMPANY,6801 HOLLYWOOD BLVD,58,34.1016,118.3388,1.0,,9.0,1.0,29.0,3.0,28.0,36.0,,,,,1.0,1.0,,4.0,,,,,4.0,9.0,,1.0,1.0,,1.0,6.0,1.0,,2.0,,2.0
14065,BURGER FACTORY,6050 HOLLYWOOD BLVD,58,34.0997,118.3272,1.0,2.0,15.0,11.0,44.0,20.0,51.0,76.0,9.0,6.0,3.0,,4.0,15.0,,6.0,,,8.0,,37.0,140.0,,18.0,10.0,,54.0,30.0,8.0,8.0,7.0,9.0,2.0
14083,KING KING,6553 HOLLYWOOD BLVD,58,34.1017,118.3327,,,,,1.0,,1.0,2.0,,,,,,,,,,,,,,,,,,,,,,,,1.0,
14086,CALIFORNIA WINGS CAFE,1649 N CAHUENGA BLVD,58,34.1006,118.3295,,,,,,,2.0,,,,,,,,,,,,,,,,,,,,,,,,,,
14118,JDB INCORPORATED,2342 W LIVE OAK DR,58,34.1166,118.3263,2.0,1.0,6.0,3.0,16.0,19.0,14.0,50.0,,1.0,5.0,1.0,4.0,31.0,,7.0,,,,,43.0,372.0,,7.0,31.0,,107.0,49.0,27.0,13.0,5.0,6.0,3.0
14119,RELAX THAI CLUB,5511 HOLLYWOOD BLVD,58,34.1018,118.3097,,,,,,,2.0,,,,,,,,,,,,,,,,,,,,,,,,,,
14150,SURFS UP HAWAIIAN BBQ,7040 W SUNSET BLVD STE D,58,34.0978,118.3427,,,1.0,,,1.0,5.0,4.0,2.0,,,,,,,,,,,,1.0,1.0,,,,,1.0,,,,,,
14153,CABANA CLUB,1430 N CAHUENGA BLVD,58,34.0967,118.3293,,,,,,,3.0,,,,,,,,,,,,,,,,,,,,,,,,,,
14205,FLORENTINE GARDENS,1250 N WESTERN AVE,58,34.0942,118.309,,,,,,,3.0,,,,,,,,,,,,,,,,,,,,,,,,,,
14245,CALIFORNIA BOWL,706 N VERMONT AVE,58,34.0898,118.294,5.0,4.0,17.0,9.0,20.0,25.0,30.0,52.0,2.0,1.0,2.0,,6.0,14.0,,3.0,,,3.0,,36.0,129.0,,24.0,27.0,,24.0,9.0,32.0,3.0,2.0,7.0,1.0
14307,HECHO EN MEXICO,4976 HUNTINGTON DR S,58,34.0874,118.1745,,,,,,,1.0,,,,,,,,,,,,,,,,,,,,,1.0,,,,,
14311,BRENDAS RESTAURANT,3600 N BROADWAY,58,34.0736,118.2023,,,,,,,3.0,,,,,,,,,,,,,,,1.0,,,,,,,,,,,
14313,MARTAS KITCHEN,2526 DALY ST,58,34.0799,118.2103,1.0,2.0,13.0,6.0,14.0,10.0,18.0,32.0,,2.0,2.0,,3.0,10.0,,3.0,,,1.0,,23.0,122.0,,13.0,32.0,,6.0,7.0,5.0,1.0,5.0,7.0,
14324,THAI KITCHEN,2000 MARENGO ST STE A,58,34.0568,118.2083,,,1.0,,,,3.0,2.0,1.0,1.0,,,,,,,,,,,1.0,2.0,,,,,,,1.0,2.0,,,
14345,ROONG FAS,4507 VALLEY BLVD STE 101,58,34.0627,118.1867,,,2.0,,,1.0,4.0,2.0,,,,,,,,,,,,,2.0,3.0,,,,,1.0,,,,,,
14358,ANGELICAS BAKERY & PIZZA,1623 E CESAR E CHAVEZ AVE,58,34.0517,118.2184,,,4.0,,,,3.0,,,,,,,,,,,,,,2.0,,,,,,,,,,,,
14369,CARMENS CATERING,120 N BREED ST APT 3,58,34.0445,118.2105,,,,,,,1.0,,,,,,,,,,,,,,,,,,,,,,,,,,
14420,MANDRAKE,2692 S LA CIENEGA BLVD,58,34.0338,118.3763,,,,,1.0,,3.0,1.0,,,,,,,,,,,,,,1.0,,,,,1.0,,,,,,
14435,TACO PLUS,9824 NATIONAL BLVD,58,34.0312,118.4005,,,,,,,4.0,,,,,,,,,,,,,,,,,,,,,,,,,,
14440,KCS CAFE,9840 NATIONAL BLVD,58,34.0311,118.4008,,,,,,,3.0,1.0,,,,,,,,,,,,,2.0,,,,1.0,,,,,,,,
14463,HAROLD CATERING,2855 ANGELO DR,58,34.1113,118.4495,,3.0,7.0,2.0,7.0,8.0,8.0,17.0,1.0,2.0,9.0,,1.0,24.0,,8.0,,,,,22.0,143.0,,2.0,3.0,,28.0,9.0,29.0,13.0,3.0,2.0,
14482,DALEY & GARFIELD,10800 ROSE AVE,58,34.0254,118.4156,,,,,,,1.0,1.0,,,,,,,,,,,,,,5.0,,,,,,,,,,,
14522,SAINTS AND SINNERS,10899 VENICE BLVD,58,34.0162,118.4117,,,,,,,2.0,1.0,,,,,,,,,,,,,,,,,,,,,,,,,
14568,PATS CATERING,9233 W PICO BLVD STE 200,58,34.0554,118.3927,,,,,,,3.0,,,,,,1.0,3.0,,,,,,,,2.0,,,,,1.0,,2.0,4.0,,,
14641,MILK,7290 BEVERLY BLVD,58,34.076,118.3483,,,,,,,1.0,,,,,,,,,,,,,,,,,,,,,,,,,,
14662,SHALOM CUISINE,608 N HAYWORTH AVE APT 3,58,34.0818,118.3625,,,,,,,1.0,,,,,,,,,,,,,,,1.0,,,1.0,,,,,,,,
14691,CHYN KING RESTAURANT,5770 W 3RD ST,58,34.0688,118.3455,,,,,,,3.0,,,,,,,,,,,,,,,,,,,,,,,,,,
14821,EL MEXICANO BAR,5517 S BROADWAY,58,33.9921,118.2784,1.0,1.0,,,,,3.0,,,,,,,,,,,,,,3.0,,,,,,,,,,,,
14827,CHINESE EXPRESS,4400 S BROADWAY,58,34.0036,118.2782,,,1.0,,,,2.0,1.0,,,,,,,,,,,,,1.0,,,,1.0,,,,1.0,,,,
14850,SERMENOS RESTAURANT,6115 SANTA MONICA BLVD,58,34.0908,118.3221,,,,1.0,,,2.0,,,1.0,,,2.0,,,,,,,,1.0,3.0,,,,,,,,,,,
14913,WORLD OF NUTS & COFFEE,5022 MELROSE AVE,58,34.0833,118.31,,,2.0,,1.0,,1.0,2.0,,,,,,,,,,,,,,1.0,,,,,,,1.0,,,,
14914,GUADALUPES PLACE,5028 MELROSE AVE,58,34.0907,118.3222,4.0,,14.0,8.0,22.0,29.0,24.0,44.0,2.0,1.0,,,4.0,13.0,,3.0,,,3.0,,44.0,139.0,,19.0,11.0,,69.0,29.0,8.0,2.0,4.0,6.0,4.0
15003,GOLDILOCKS CORP CALIFORNIA,2700 COLO BLVD STOP 9003,58,34.1426,118.2245,,,7.0,,21.0,4.0,6.0,23.0,1.0,,,,,1.0,,,,,,,6.0,3.0,,,,,1.0,2.0,1.0,,1.0,,
15166,HONG KONG EXPRESS,3330 W FLORENCE AVE,58,33.9744,118.3303,,,,1.0,,1.0,1.0,,,,,,,,,,,,,,1.0,,,,,,1.0,,,,,,
15174,NEW ORLEANS SNOBALLS,4452 W SLAUSON AVE,58,33.9881,118.3344,1.0,5.0,22.0,11.0,40.0,24.0,34.0,76.0,3.0,3.0,6.0,1.0,6.0,46.0,,11.0,,,6.0,,72.0,247.0,,29.0,35.0,,15.0,17.0,22.0,10.0,21.0,36.0,
15175,THAI PATIO RESTAURANT INC,5273 HOLLYWOOD BLVD,58,34.1018,118.3058,,,,,,,1.0,,,,,,,,,,,,,,,,,,,,,,,,,,
15189,HONG KONG EXPRESS,11252 S NORMANDIE AVE,58,33.9313,118.3001,,,2.0,,,,1.0,,1.0,,,,,,,,,,,,1.0,,,,,,,1.0,,,,,
15197,TOP LINE QUALITY SERVICE,9463 S NORMANDIE AVE,58,33.95,118.3004,,,,,,1.0,1.0,1.0,,,,,,,,,,,,,,,,,,,,,,,,,
15213,HONG KONG BOWL,1355 W FLORENCE AVE STE A,58,33.9747,118.2997,,,1.0,,,,1.0,2.0,,,,,,,,,,,,,,,,,,,,,,,,,
15249,BEN & JERRYS ICE CREAM PARLOR,6081 CENTER DR STE 114,58,33.9781,118.3926,,,3.0,,5.0,2.0,17.0,16.0,1.0,,,,,1.0,,,,,,,2.0,4.0,,1.0,,,3.0,2.0,1.0,,,,
15310,THAI DISHES,6234 W MANCHESTER AVE,58,33.9629,118.3924,2.0,3.0,13.0,17.0,31.0,27.0,38.0,97.0,2.0,12.0,10.0,,15.0,29.0,,9.0,,,,,52.0,344.0,,30.0,20.0,,24.0,23.0,43.0,10.0,13.0,11.0,
15322,TACO EXPRESS,9200 AVIATION BLVD,58,33.9525,118.3768,,,,2.0,,,1.0,,,,,,,,,,,,,,,,,,,,,,,,,,
15337,TRIMANA RESTAURANT,5200 W CENTURY BLVD,58,33.9452,118.3702,,,1.0,,1.0,1.0,1.0,3.0,1.0,5.0,2.0,1.0,1.0,5.0,,4.0,,,1.0,,,13.0,,1.0,,,,,5.0,6.0,1.0,1.0,
15402,CLUB VODKA,1725 CAMINO PALMERO ST,58,34.1021,118.3501,,,,,,1.0,1.0,,,,,,,,,1.0,,,,,2.0,2.0,,1.0,,,4.0,,,,,,
15421,RAFFALLOS PIZZA,7311 W SUNSET BLVD APT W,58,34.0981,118.3493,,,,,,,4.0,2.0,,,,,,,,,,,,,,2.0,,,1.0,,,,,,,,
15442,GRANDMAS DELI BABUSHKA,7300 W SUNSET BLVD STE M,58,34.0978,118.3497,,,1.0,,2.0,,8.0,4.0,,,,,,,,,,,1.0,,11.0,3.0,,,1.0,,,3.0,1.0,1.0,,,
15477,INTI RESTAURANT,5870 MELROSE AVE STE 5,58,34.0833,118.3281,2.0,1.0,3.0,,,,3.0,2.0,,,,,1.0,,,1.0,,,,,3.0,5.0,,1.0,,,1.0,3.0,3.0,,2.0,,
15499,MAOS KITCHEN,7315 MELROSE AVE,58,34.0836,118.34899999999999,,,,,2.0,,3.0,2.0,,,,,,,,,,,,,2.0,3.0,,,,,3.0,,,,,,
15507,RIGHT TRACK,1732 W FLORENCE AVE,58,33.9744,118.30799999999999,,,,,,,2.0,,,,,,,,,,,,,,,,,,,,,,,,,,
15515,LA KOREA,7174 MELROSE AVE,58,34.0833,118.3457,,,2.0,,,,5.0,,,,,,,,,,,,,,,,,,,,,,,,,,
15562,ADOLFO GARCIA,10208 S WESTERN AVE,58,33.9437,118.3088,,,,,,,2.0,,,,,,,1.0,,,,,1.0,,1.0,,,,,,,,,,,,
15592,HANMAR ENTERPRISES,8455 BEVERLY BLVD STE 307,58,34.0761,118.375,,,,,1.0,3.0,1.0,,,1.0,1.0,,4.0,5.0,,5.0,,,1.0,,2.0,14.0,,,,,13.0,11.0,12.0,1.0,,4.0,
15657,BENITOS TACO SHOP,7912 BEVERLY BLVD,58,34.0759,118.3617,,,,,,,2.0,,,,,,,,,,,,,,,,,,,,,,1.0,,,,
15809,BLACK TRUFFLE CATERING,5936 S CHARITON AVE,58,33.985,118.3721,,,,,,,1.0,,,,,,,,,,,,,,,1.0,,,,,,,,,,,
15847,NUTN DELI COMPANY NO 2,600 S ALVARADO ST,58,34.0593,118.2747,,4.0,7.0,,21.0,4.0,4.0,15.0,,,,,2.0,1.0,,,,,,,6.0,4.0,,1.0,1.0,,,,3.0,1.0,,,
15933,ECHEVARRIA DELI,11650 GORMAN AVE,58,33.9273,118.2312,,,,,,,1.0,,,,,,,,,,,,,,,,,,,,,,,,,,
16007,LAS DELICIAS,4029 S WESTERN AVE,58,34.0102,118.309,,,1.0,,1.0,,1.0,3.0,,,,,,1.0,,,,,1.0,,2.0,,,2.0,,,,,,,,,
16021,CHINA EXPRESS,3813 E CESAR E CHAVEZ AVE,58,34.0414,118.1854,3.0,6.0,30.0,13.0,12.0,9.0,20.0,35.0,1.0,1.0,,,3.0,10.0,,4.0,,,,,34.0,91.0,,26.0,34.0,,6.0,4.0,6.0,2.0,2.0,7.0,
16037,LAS NUEVAS,3701 E 1ST ST,58,34.0414,118.1854,3.0,6.0,30.0,13.0,12.0,9.0,20.0,35.0,1.0,1.0,,,3.0,10.0,,4.0,,,,,34.0,91.0,,26.0,34.0,,6.0,4.0,6.0,2.0,2.0,7.0,
16043,CHINA EXPRESS,3592 E 1ST ST,58,34.0414,118.1854,3.0,6.0,30.0,13.0,12.0,9.0,20.0,35.0,1.0,1.0,,,3.0,10.0,,4.0,,,,,34.0,91.0,,26.0,34.0,,6.0,4.0,6.0,2.0,2.0,7.0,
16161,SATORI,2243 LINNINGTON AVE,58,34.0488,118.4209,,,,,,,1.0,,,,,,,,,,,,,,,,,,,,,,,,,,
16179,TOKIWOK,2536 OVERLAND AVE,58,34.0399,118.4232,,,,,,,4.0,,,,,,,,,,,,,,2.0,,,,,,,1.0,,,,,
16180,AROMA CAFE,2530 OVERLAND AVE,58,34.0345,118.4264,7.0,1.0,10.0,12.0,32.0,23.0,41.0,88.0,1.0,5.0,7.0,,11.0,49.0,,16.0,,,3.0,,44.0,291.0,,19.0,22.0,,50.0,34.0,53.0,29.0,11.0,12.0,1.0
16210,DALY & GARFIELD,11650 NATIONAL BLVD,58,34.0228,118.4379,,,,,,,1.0,,,,,,,,,,,,,,,1.0,,,,,,2.0,,,,,
16254,MARIAS RESTAURANT,3401 N FIGUEROA ST,58,34.0876,118.2176,,,2.0,,,,3.0,,,,,,,,,,,,,,,1.0,,,1.0,,,,,,,,
16346,NEW FLAVORS INCORPORATED,4135 S CENTINELA AVE,58,33.9963,118.428,,,,,,,2.0,1.0,,,,,,,,,,,,,,1.0,,,,,,,,,,,
16419,PLAZA CAFE,4463 W 12TH ST,58,34.0518,118.3316,,,,,,,1.0,,,,,,,,,,,,,,,,,,,,,,,,,,
16613,SOORAKSAN SOOJEBI,4003 WILSHIRE BLVD STE I,58,34.0618,118.3144,,,1.0,,2.0,,5.0,3.0,,,,,,,,,,,,,2.0,,,,,,,,,,,,
16672,EL CENTRO LOUNGE LLC,6202 SANTA MONICA BLVD,58,34.0906,118.3246,,,,,,,3.0,,,,,,,,,,,,,,,,,,,,,1.0,,,1.0,,
16732,BASKIN-ROBBINS,8051 W 3RD ST,58,34.073,118.3719,3.0,2.0,12.0,6.0,40.0,55.0,54.0,84.0,3.0,3.0,9.0,,9.0,50.0,,20.0,,,4.0,,76.0,247.0,,8.0,30.0,,67.0,25.0,55.0,23.0,9.0,13.0,3.0
16758,SHELLY CAFE,7013 HOLLYWOOD BLVD,58,34.1016,118.3422,,,,,,,1.0,,,,,,,,,,,,,,,,,,1.0,,,1.0,,,,,
16798,FRIENDLY FOODS INC,6077 CASHIO ST,58,34.0504,118.374,,,,,,,1.0,,,,,,,,,,,,,,,1.0,,,,,,,,,,,
16846,MICHAEL J S BSTON PIZZERIA INC,1640 MARENGO ST STE 406,58,34.0594,118.2135,,,,,1.0,,3.0,,,,,,,1.0,,,,,3.0,,1.0,1.0,,,,,,,7.0,,,,
16859,PHO 21,705 S WESTERN AVE,58,34.0594,118.3092,,,,,,,3.0,2.0,,,,,,,,,,,,,,2.0,,,,,,,,,,,
16905,SQUEAKS SWEETS,2313 CENTURY HL,58,34.0555,118.4106,,,,,,,1.0,,,,,,,,,1.0,,,,,,1.0,,,,,,,,,,,
17075,JOHNNIES PIZZERIA,505 S FLOWER ST,58,34.0515,118.2563,,,8.0,2.0,6.0,1.0,18.0,10.0,,,,,,1.0,,,,,,,8.0,4.0,,,1.0,,,2.0,8.0,,,,
17092,TRIMANA RESTAURANT,515 S FIGUEROA ST STE 380,58,34.0521,118.2575,2.0,,1.0,2.0,,1.0,1.0,7.0,7.0,4.0,15.0,2.0,4.0,42.0,,20.0,,,2.0,,3.0,33.0,,,1.0,,,3.0,6.0,39.0,4.0,4.0,
17147,FLEMING PRIME STKHUSE WINE BAR,714 W OLYMPIC BLVD,58,34.0444,118.2632,2.0,,,,,2.0,2.0,2.0,,4.0,3.0,2.0,5.0,11.0,,10.0,,,,,4.0,25.0,,3.0,,,1.0,3.0,6.0,32.0,2.0,4.0,
17209,OVER UNDER SPORTS GRILL,3915 CARNAVON WAY,58,34.1182,118.2784,,,,,,,2.0,,,,,,,,,,,,,,,,,,,,,,,,,1.0,
17288,RAFFALLOS PIZZA,4708 FOUNTAIN AVE,58,34.0954,118.2921,,,,,,,2.0,,,,,,,,,,,,,,1.0,,,,1.0,,,,,,,,
17290,RAFFALLOS PIZZA,1657 N LA BREA AVE,58,34.1012,118.3452,,,1.0,,,,8.0,1.0,,,,,,,,,,,,,1.0,1.0,,,1.0,,,,,,,,
17292,RAFFALLOS PIZZA,1657 N LA BREA AVE,58,34.1012,118.3452,,,1.0,,,,8.0,1.0,,,,,,,,,,,,,1.0,1.0,,,1.0,,,,,,,,
17452,PHO SAIGON NOODLE & GRILL,1753 S HILL ST,58,34.0329,118.2661,,,1.0,,3.0,,1.0,,,,,,,,,,,,,,,1.0,,,,,,,2.0,,,,
17507,SIDE STREETS NIGHTCLUB,1575 HILL DR,58,34.1451,118.2002,,,,,,,1.0,,,,,,,,,,,,,,,,,,,,1.0,,,,,,
17639,ROGER ROOM,370 N LA CIENEGA BLVD,58,34.0776,118.3764,,,,,,,1.0,1.0,,,,,,,,,,,,,,1.0,,,,,,,,,,,
17711,TOWN CENTER BUFFET INC,430 CASANOVA ST APT 1,58,34.071999999999996,118.2296,,,,,,,1.0,,,,,,,,,,,,,,,,,,,,,,,,,,
17760,K&K ONE RESTAURANTS INC,3600 WILSHIRE BLVD,58,34.0615,118.3032,,1.0,8.0,2.0,22.0,11.0,12.0,36.0,6.0,33.0,18.0,3.0,26.0,47.0,,40.0,,,,,18.0,155.0,,8.0,3.0,,8.0,15.0,33.0,113.0,5.0,10.0,1.0
17791,HAWAIIAN BBQ ISLAND,3453 DIVISION ST,58,34.1055,118.2272,,,,,,,1.0,,,,,,,,,,,,,,,,,,,,,,,,,,
17826,JOHNSON BOBBY,3440 WILSHIRE BLVD,58,34.0616,118.2989,1.0,,,,12.0,3.0,3.0,6.0,1.0,14.0,8.0,2.0,6.0,21.0,,16.0,,,,,10.0,72.0,,5.0,1.0,,3.0,3.0,23.0,38.0,10.0,2.0,
17837,FINE FOOD SOLUTIONS LLC,1236 S POINT VIEW ST,58,34.0531,118.3806,5.0,3.0,18.0,3.0,23.0,26.0,22.0,84.0,1.0,3.0,3.0,,5.0,41.0,,13.0,,,1.0,,49.0,290.0,,9.0,15.0,,35.0,18.0,42.0,12.0,8.0,13.0,1.0
17937,CARLS JR,254 S BROADWAY,58,34.0516,118.2473,,,,,,,2.0,,,,,,,,,,,,,,,,,,,,,,,,,,
17940,JOHNNY ROCKETS,135 S CENTRAL AVE,58,34.0629,118.2381,1.0,5.0,16.0,5.0,27.0,13.0,48.0,71.0,11.0,1.0,4.0,1.0,7.0,19.0,,5.0,,,,,16.0,68.0,,9.0,30.0,,5.0,17.0,19.0,15.0,3.0,6.0,4.0
17982,GENWA,5115 WILSHIRE BLVD STE A,58,34.0622,118.34100000000001,,,,,,,1.0,,,,,,,1.0,,1.0,,,,,1.0,1.0,,,,,,,2.0,,1.0,,
18002,LAX SHARED USE LOUNGE CO LLC,380 WORLD WAY,58,33.9442,118.4084,,,,2.0,,1.0,7.0,4.0,2.0,,1.0,,,,,1.0,,,1.0,,,3.0,,,,,,,,1.0,1.0,,
18045,SMOKIN PIG,6701 HOLLYWOOD BLVD,58,34.1016,118.3362,,,2.0,,,,1.0,1.0,,,,,,,,,,,,,,,,,,,,,,,,,
18062,PAPA JOHNS PIZZA,5962 W OLYMPIC BLVD,58,34.0576,118.3614,,,2.0,,,,3.0,4.0,,,,,,,,,,,,,1.0,,,,,,,,,,,,
18075,MUSE LIFESTYLE GROUP LLC,1648 WILCOX AVE 2,58,34.1006,118.3308,,,,,1.0,,3.0,,,,,,,,,,,,,,,1.0,,,,,6.0,,1.0,,,,
18192,AZTECA GRILL,207 S MEDNIK AVE,58,34.0345,118.162,,,2.0,,,,3.0,,,,,,,,,,,,,,,,,,1.0,,,,,,,,
18309,JABA TWIST,3540 WILSHIRE BLVD,58,34.0615,118.3018,1.0,2.0,9.0,1.0,10.0,8.0,11.0,24.0,1.0,24.0,6.0,4.0,15.0,35.0,,23.0,,,2.0,,18.0,116.0,,4.0,3.0,,3.0,13.0,67.0,89.0,10.0,12.0,2.0
18323,TULIP CAFE,628 ST VINCENT CT,58,34.0447,118.25200000000001,,4.0,9.0,2.0,65.0,7.0,31.0,56.0,6.0,3.0,,,,9.0,,1.0,,,1.0,,10.0,20.0,,,7.0,,,5.0,2.0,5.0,3.0,2.0,
18394,SWEET BASIL CAFE,1040 N LAS PALMAS AVE,58,34.0896,118.336,,,,,,,2.0,3.0,,,,,,5.0,,1.0,,,,,2.0,16.0,,1.0,2.0,,72.0,21.0,,,1.0,,
18509,ASSAR LLC,11502 SANTA MONICA BLVD,58,34.0452,118.45200000000001,,,,,,,1.0,1.0,,,,,,,,,,,,,,,,,,,,,,,,,
18521,CONNECTIONS REFERRAL SERVICE,563 N BUNDY DR,58,34.07,118.4767,,,,,,,1.0,,,,,,,,,,,,,,,1.0,,,,,,,,,,,
18526,EL BRONCO RESTAURANT,5427 VENICE BLVD,58,34.0443,118.3577,,,,,,,1.0,,1.0,,,,,,,,,,,,,,,,,,,,,,,,
18544,LAS ISLAS MARIAS NO 3,735 S ATLANTIC BLVD,58,34.0217,118.15700000000001,,,,,,,3.0,,,,,,1.0,,,,,,,,,,,,,,,,,,,,
18605,FABIO F JOHNSON FAMILY LP,5050 FERNDALE ST,58,34.0307,118.3532,,,,,,,1.0,,,,,,,,,,,,,,,,,,,,,,,,,,
18630,KORAKU TORRANCE RESTAURANTS,314 E 2ND ST,58,34.0488,118.2413,,,,,2.0,,3.0,,,,,,,1.0,,,,,,,,1.0,,,,,,,1.0,,,,
18642,BHFC OPERATING LLC,700 S GRAND AVE,58,34.047,118.2565,,,,,,,1.0,,,,,,,,,,,,,,,,,,,,,,,,,,
18652,TURTLE RESTAURANT,4271 BEVERLY BLVD,58,34.0763,118.302,,,,,,,3.0,,,,,,,,,,,,,,,,,,,,,,,,,,
18659,GARIBAY INC,5053 HUNTINGTON DR N,58,34.0889,118.1721,,,,,,,2.0,,,,,,,,,,,,,,,,,,,,,,,,,,
18664,ALOHA CAFE,410 E 2ND ST,58,34.0629,118.2381,1.0,5.0,16.0,5.0,27.0,13.0,48.0,71.0,11.0,1.0,4.0,1.0,7.0,19.0,,5.0,,,,,16.0,68.0,,9.0,30.0,,5.0,17.0,19.0,15.0,3.0,6.0,4.0
18668,EL TARASCO CAFE,4954 HUNTINGTON DR S,58,34.0873,118.175,,,,,,,1.0,1.0,,,,,,,,,,,,,,,,,,,,,,,,,
18789,STUCKEY INC,1026 S HAYWORTH AVE,58,34.0531,118.3806,5.0,3.0,18.0,3.0,23.0,26.0,22.0,84.0,1.0,3.0,3.0,,5.0,41.0,,13.0,,,1.0,,49.0,290.0,,9.0,15.0,,35.0,18.0,42.0,12.0,8.0,13.0,1.0
18812,SUBWAY SANDWICH SALADS,3300 S CENTRAL AVE,58,34.0134,118.2563,,,,,,,1.0,,,,,,,,,,,,,,,1.0,,,,,,,,,,,
18844,QQ CAFE LLC,824 SAN JULIAN ST,58,34.039,118.2499,,,,,,,1.0,1.0,,,,,,,,,,,,,,,,,,,,,,,,,
18848,MAUI BEACH INC,1019 WESTWOOD BLVD,58,34.0621,118.4456,,,,,,,4.0,,,,,,,,,,,,,,,,,,,,,,,,,,
18858,KINGS PEPPER,4939 MAYMONT DR,58,33.9881,118.3344,1.0,5.0,22.0,11.0,40.0,24.0,34.0,76.0,3.0,3.0,6.0,1.0,6.0,46.0,,11.0,,,6.0,,72.0,247.0,,29.0,35.0,,15.0,17.0,22.0,10.0,21.0,36.0,
18920,EARLEZ GRILLE,5608 W PICO BLVD,58,34.0499,118.3607,,,,,,,1.0,,,,,,,,,,,,,,2.0,,,5.0,,,,,,,,1.0,
18943,USC MED PUBLIC CAFETERIA,1200 STATE ST,58,34.0219,118.2866,,,,1.0,,,2.0,,,,,,,,,,,,,,,3.0,,1.0,,,1.0,,3.0,1.0,18.0,,
18962,KEUM SUNG RESTAURANT,2561 W OLYMPIC BLVD,58,34.0525,118.2867,,,,,,1.0,3.0,1.0,,,,,,,,,,,,,,,,,,,,,,,,,
19024,BMPP FRANCHISING INC,5051 HOLLYWOOD BLVD,58,34.1061,118.291,2.0,2.0,8.0,11.0,27.0,29.0,41.0,67.0,3.0,2.0,3.0,,5.0,29.0,,13.0,,,1.0,,58.0,347.0,,20.0,32.0,,55.0,39.0,56.0,12.0,12.0,12.0,2.0
19036,HAMASAKU,11043 SANTA MONICA BLVD,58,34.0482,118.443,,,,,,,1.0,,,,,,,,,,,,,,,,,,,,,,,,,,
19092,NATURES WAY CAFE,10917 LINDBROOK DR,58,34.0596,118.445,,,,,,,2.0,,,,,,,,,,,,,,,,,,,,3.0,,,,,,
19229,QUIZINOS,6325 WILSHIRE BLVD,58,34.0636,118.3663,,,,,,,1.0,1.0,,,,,,,,,,,,,,1.0,,,,,,,2.0,,,,
19230,JACINTOS CAFE,1255 W COURT ST,58,34.0791,118.2597,6.0,5.0,35.0,14.0,40.0,39.0,50.0,106.0,2.0,2.0,3.0,2.0,9.0,41.0,,6.0,,,3.0,,57.0,373.0,,22.0,83.0,,50.0,35.0,40.0,21.0,7.0,18.0,2.0
19237,SEIKI SHI SUSHI,10250 SANTA MONICA BLVD,58,34.06,118.4197,1.0,6.0,16.0,1.0,151.0,13.0,55.0,129.0,1.0,1.0,1.0,,1.0,4.0,,,,,,,23.0,18.0,,3.0,5.0,,2.0,3.0,4.0,,2.0,,3.0
19289,JJWAVE CORP,1100 WILSHIRE BLVD,58,34.0522,118.2635,,,,,1.0,,2.0,,,,3.0,,1.0,7.0,,2.0,,,,,,11.0,,,1.0,,2.0,,4.0,7.0,1.0,,
19323,SIMPLY A FEAST,6710 LA TIJERA BLVD,58,33.9784,118.3703,,,,,,,2.0,,,,,,,,,,,,,,,,,,,,,,,,,,
19326,PREMIER DINING SERVICES INC,110 E 9TH ST STE A1167,58,34.0412,118.2548,2.0,15.0,11.0,5.0,261.0,12.0,24.0,74.0,9.0,6.0,6.0,1.0,3.0,13.0,,11.0,,,,,24.0,149.0,,4.0,2.0,,5.0,7.0,8.0,3.0,3.0,3.0,3.0
19341,MI PATIO RESTAURANT INC,1285 MAPLE AVE,58,34.0347,118.2573,,,1.0,,6.0,,1.0,3.0,,,,,,,,,,,,,,1.0,,,,,,,,,,,
19348,CHUCK WAGON VENDING,8007 NAYLOR AVE,58,33.9659,118.3955,,,,,,,1.0,1.0,,,,,,,,,,,,,,,,,,,,,,,,,
19364,B & B SNAX,4110 VERDUGO RD,58,34.1253,118.2316,,,1.0,,,,5.0,,,,,,,,,,,,,,3.0,,,,,,1.0,,2.0,,,1.0,
19478,NEPTUNES LOUNGE,601 S WESTERN AVE,58,34.0633,118.3092,,,,,,,2.0,,,2.0,,,,,,,,,,,,1.0,,,,,,1.0,2.0,,,,
19580,A HOLLYWOOD PIZZERIA LP,408 N LUCERNE BLVD,58,34.0763,118.3104,8.0,1.0,23.0,5.0,27.0,44.0,36.0,75.0,1.0,2.0,1.0,,7.0,36.0,,14.0,,,2.0,,56.0,282.0,,17.0,40.0,,32.0,25.0,42.0,8.0,4.0,16.0,1.0
19596,RAFFALLOS PIZZA,7311 W SUNSET BLVD,58,34.0981,118.3493,,,,,,,4.0,2.0,,,,,,,,,,,,,,2.0,,,1.0,,,,,,,,
19638,TTU-RAK RESTAURANT,125 N WESTERN AVE STE 106,58,34.0737,118.3092,,,1.0,,3.0,,3.0,1.0,,,,,,,,,,,,,1.0,1.0,,,,,,,,,,,
19691,JACK IN BOX INC,516 N BEAUDRY AVE,58,34.0642,118.2499,,,,,,,1.0,,,,,,,,,,,,,,,,,,,,,,,,,,
19717,JOHNNY ROCKETS,6060 WILSHIRE BLVD,58,34.0627,118.3607,,,,,,,1.0,1.0,,,,,,1.0,,,,,,,1.0,1.0,,,,,,,,,,,6.0
19728,T&J DELI,8250 W 3RD ST,58,34.0724,118.3693,,,,,1.0,1.0,2.0,1.0,,,,1.0,,,,1.0,,,,,11.0,2.0,,,,,,5.0,6.0,,,,
19778,STRAWBERRY PATCH INC,11501 W PICO BLVD,58,34.0333,118.4427,,,,,,,3.0,,,,,,,,,,,,,,,,,,,,,,,,,,
19779,J S L CORP,11501 W PICO BLVD,58,34.0333,118.4427,,,,,,,3.0,,,,,,,,,,,,,,,,,,,,,,,,,,
19838,WABA GRILL,1134 N VERMONT AVE,58,34.0914,118.2915,,,,,,,2.0,,,,,,,,,,,,,,,,,,,,,,,,,,
19852,CESAR RODRIGUEZ GLORIA GARCIA,450 S LA FAYETTE PARK PL,58,34.065,118.2817,,,,,,,1.0,,,,,,,,,,,,,,,,,,,,,,,,,,
19881,MART CAFE,110 E 9TH ST STE A6,58,34.0412,118.2548,2.0,15.0,11.0,5.0,261.0,12.0,24.0,74.0,9.0,6.0,6.0,1.0,3.0,13.0,,11.0,,,,,24.0,149.0,,4.0,2.0,,5.0,7.0,8.0,3.0,3.0,3.0,3.0
19895,LUCYS DRIVE INN,1723 W IMPERIAL HWY,58,33.9311,118.3074,,,,,,,2.0,,,,,,,,,,,,,,,,,,,,,,,,,,
19900,LUCYS DRIVE-IN,1568 W PICO BLVD,58,34.0443,118.2766,,,,,,,2.0,,,,,,,,,,,,,,,,,,,,,,,,,,
19932,FLAME CHICKEN,3553 W 3RD ST,58,34.0691,118.2931,,,3.0,,,,2.0,,,,,,,,,,,,,,,,,,,,,,,,,,
19950,KIM GARDEN,1549 N VERMONT AVE,58,34.0992,118.2919,,,2.0,,3.0,,2.0,3.0,,,,,,,,,,,,,3.0,1.0,,,,,,,6.0,,,,
19954,KING TACO RESTAURANT INC,1118 CYPRESS AVE,58,34.094,118.2264,,,,,,,1.0,,,,,,,,,,,,,,,,,,1.0,,,,,,,,
19959,L A BARBEQUE KING INC,612 N LA BREA AVE,58,34.082,118.3438,,,,,,,3.0,,,,,,,,,,,,,,,,,,1.0,,,,,,1.0,,
19978,LE BARCITO,4470 W SUNSET BLVD,58,34.0979,118.2872,3.0,1.0,3.0,1.0,,3.0,2.0,7.0,,2.0,1.0,,2.0,7.0,,4.0,,,,,9.0,43.0,,,1.0,,12.0,10.0,4.0,3.0,1.0,1.0,
19994,LOS BURRITOS RESTAURANT,1134 N VERMONT AVE,58,34.0914,118.2915,,,,,,,2.0,,,,,,,,,,,,,,,,,,,,,,,,,,
20022,SIERRA CALIENTE,7401 S ALAMEDA ST,58,33.9728,118.2345,,,,2.0,,1.0,2.0,,,,,,,,,,,,,,,,,5.0,1.0,,,,,,,,
20036,MEALS BY GENET,1053 S FAIRFAX AVE,58,34.0569,118.3646,,,1.0,,1.0,1.0,1.0,,,,,,,1.0,,,,,,,,1.0,,,,,,,,1.0,,,
20041,MENDOZA HECTOR,534 N HOOVER ST,58,34.0803,118.2842,,,,,,,2.0,,,,,,,,,,,,,,,,,,1.0,,,,,,,,
20046,METRO GLATT RESTAURANT,8975 W PICO BLVD,58,34.0531,118.3806,5.0,3.0,18.0,3.0,23.0,26.0,22.0,84.0,1.0,3.0,3.0,,5.0,41.0,,13.0,,,1.0,,49.0,290.0,,9.0,15.0,,35.0,18.0,42.0,12.0,8.0,13.0,1.0
20076,GARCIA LILLIAN ROSARIO,4157 EAGLE ROCK BLVD,58,34.1216,118.2262,,,4.0,,1.0,,6.0,3.0,,1.0,,,4.0,2.0,,,,,,,3.0,,,,1.0,,1.0,1.0,4.0,2.0,,,
20148,PRAEL GROUP,4620 MELROSE AVE,58,34.0834,118.3009,,,,,,,1.0,,,,,,,,,,,,,,,,,,,,,,,,,,
20155,SUBWAY SANDWICHES,3756 W AVENUE 40 STE 1D,58,34.1195,118.2279,,,5.0,,,3.0,7.0,4.0,1.0,,,,,,,,,,,,2.0,3.0,,,2.0,,1.0,1.0,4.0,,,,
20193,ROCCOS ITALIAN KITCHEN,6335 WILSHIRE BLVD,58,34.0636,118.3665,,,,,2.0,,3.0,6.0,,,,,,4.0,,1.0,,,,,2.0,3.0,,1.0,,,,,74.0,,,,
20274,TOM YUM THAI RESTAURANT,6340 HOLLYWOOD BLVD,58,34.1014,118.3279,,,1.0,,,,3.0,,,,,,,,,,,,,,,,,,,,,,,,,,
20372,DENNYS RESTAURANT,821 W JEFFERSON BLVD,58,34.024,118.2842,1.0,,,,,,1.0,,1.0,,,,,,,,,,,,,,,,,,,,,,,,
20395,ARPI RESTAURANT,4430 FOUNTAIN AVE STE 2,58,34.0956,118.286,,,,,,,1.0,,,,,,,1.0,,,,,,,,,,,,,,2.0,3.0,,,,
20454,BURGER KING 11053,3241 N FIGUEROA ST,58,34.086,118.2198,,,,,,,1.0,,,,,,,,,,,,,,,,,,,,,,,,,,
20496,CHAMEAU INC,339 N FAIRFAX AVE,58,34.0769,118.3616,,,6.0,,,1.0,3.0,1.0,,,,,,,,,,,,,,,,,,,,,,,,,
20512,YOGURT HAVEN,2256 COLO BLVD STE 101,58,34.1393,118.2155,,,2.0,,,,7.0,1.0,,,,,,,,,,,,,3.0,,,,,,,,1.0,,,,
20524,TOMS JR EXPRESS,722 E FLORENCE AVE,58,33.9745,118.2621,,,,,,,1.0,,,,,,,,,,,,,,2.0,,,,,,,,,,,,
20536,CUISINE DES LYS,1515 S ROBERTSON BLVD,58,34.0517,118.3842,,,,,,,1.0,,,,,,,,,,,,,,,,,,,,,,,,,,
20632,PEACE PALACE,3428-32 W 8TH STREET,58,34.0597,118.3013,2.0,2.0,11.0,1.0,13.0,17.0,30.0,29.0,2.0,2.0,1.0,,11.0,18.0,,4.0,,,4.0,,31.0,74.0,,6.0,12.0,,8.0,7.0,23.0,10.0,6.0,9.0,
20633,FOUR WAYS,7717 COMPTON AVE,58,33.9747,118.2491,10.0,9.0,20.0,25.0,17.0,29.0,34.0,59.0,1.0,,1.0,1.0,6.0,14.0,,5.0,,,6.0,,26.0,107.0,,50.0,27.0,,5.0,12.0,22.0,11.0,9.0,8.0,1.0
20694,SHAKY ALIBI INC,7401 BEVERLY BLVD,58,34.0762,118.3512,,,,,,,1.0,,,,,,,,,,,,,,1.0,,,,,,,,,,,,
20709,HONG KONG BOWL LOUISIANA,5834 S VERMONT AVE,58,33.9885,118.2913,,1.0,,,9.0,,1.0,3.0,,,,,1.0,1.0,,,,,,,1.0,2.0,,,,,,,1.0,,,,
20714,HUNAN CAFE,7986 W SUNSET BLVD,58,34.0978,118.3643,,,1.0,,,1.0,5.0,1.0,,,,,,,,,,,,,2.0,2.0,,,,,,1.0,,,,,
20727,BEDROCK BREWING COMPANY LLC,3450 EFFIE ST,58,34.0916,118.2738,,,,,,,1.0,,,,,,,,,,,,,,,4.0,,,,,1.0,,,,,,
20761,CHILI BEANS,10250 SANTA MONICA BLVD,58,34.06,118.4197,1.0,6.0,16.0,1.0,151.0,13.0,55.0,129.0,1.0,1.0,1.0,,1.0,4.0,,,,,,,23.0,18.0,,3.0,5.0,,2.0,3.0,4.0,,2.0,,3.0
20774,PHILLY WEST BAR & GRILL,1870 WESTWOOD BLVD,58,34.0486,118.4356,,,,,,,2.0,,,,,,,,,,,,,,2.0,,,,,,,,,,,,
20819,BS CUISINE LLC,818 WILSHIRE BLVD,58,34.0496,118.2589,,,,,,1.0,6.0,,1.0,,,,,3.0,,,,,,,,3.0,,,1.0,,1.0,,,,2.0,,
20838,GARSIRY,3800 W PICO BLVD,58,34.0473,118.3225,,,,,,,1.0,,,,,,,,,,,,,,,,,,,,,1.0,,,,,
20854,RINCON DE GUAYABITOS 3,6049 WHITTIER BLVD,58,34.0169,118.1408,,,,,,,2.0,,,,,,,,,,,,,,,,,,,,,,,,,,
20938,GITANJALI INDIA RESTAURANT,727 N CHEROKEE AVE,58,34.0907,118.3222,4.0,,14.0,8.0,22.0,29.0,24.0,44.0,2.0,1.0,,,4.0,13.0,,3.0,,,3.0,,44.0,139.0,,19.0,11.0,,69.0,29.0,8.0,2.0,4.0,6.0,4.0
20970,ROYAL RESTAURANT,743 S WESTERN AVE,58,34.0592,118.309,,,1.0,,1.0,,1.0,,,,,,,,,,,,,,,,,,,,,,,,,,
20982,LINBILL INC,7003 HOLLYWOOD BLVD,58,34.0997,118.3272,1.0,2.0,15.0,11.0,44.0,20.0,51.0,76.0,9.0,6.0,3.0,,4.0,15.0,,6.0,,,8.0,,37.0,140.0,,18.0,10.0,,54.0,30.0,8.0,8.0,7.0,9.0,2.0
21208,JACMAR COMPANIES,5170 W SUNSET BLVD,58,34.0979,118.3026,,,,,,,1.0,,,,,,,,,,,,,,,,,,1.0,,,,,,,,
21342,SUNLY CHENG & MEANG H TAN,1100 N VERMONT AVE,58,34.091,118.2915,,,1.0,,2.0,,3.0,2.0,,,,,,,,,,,,,4.0,,,,,,1.0,,,,,,
21388,KIBITZ ROOM,419 N FAIRFAX AVE,58,34.0785,118.3616,,,5.0,,,1.0,2.0,1.0,,,,,,,,,,,,,,,,,,,,,,,,,
21488,EL GALLITO RESTAURANT,3800 E OLYMPIC BLVD,58,34.0187,118.1931,,,,,,,2.0,,,,,,,,,,,,,,,,,,,,,,,,,,
21671,504 RESTAURANT,6541 HOLLYWOOD BLVD,58,34.1017,118.3326,,,1.0,,6.0,1.0,7.0,9.0,,,,,,2.0,,,,,2.0,,2.0,,,,,,,4.0,,,1.0,,1.0
21685,MICHAEL CORDON & BLEU INC,3625 S WESTERN AVE,58,34.0222,118.309,,,,,,,2.0,,,,,,,,,,,,,,,,,,,,,,,,,,
21696,FIESTA WOK,2256 COLO BLVD STE 112,58,34.1393,118.2155,,,2.0,,,,7.0,1.0,,,,,,,,,,,,,3.0,,,,,,,,1.0,,,,
21829,SOUTH CHINA SEA WEST INC,8225 BEVERLY BLVD,58,34.0762,118.3688,,,,,,1.0,4.0,1.0,,,,,,,,,,,,,,1.0,,,,,,,,,,,
21886,JAYS BAR,4321 W SUNSET BLVD,58,34.0898,118.294,5.0,4.0,17.0,9.0,20.0,25.0,30.0,52.0,2.0,1.0,2.0,,6.0,14.0,,3.0,,,3.0,,36.0,129.0,,24.0,27.0,,24.0,9.0,32.0,3.0,2.0,7.0,1.0
22012,SUSHI KAIHO,2804 HYPERION AVE,58,34.108000000000004,118.2716,,,1.0,,,,2.0,,,,,,,,,,,,,,,,,,,,,,,,,,
22213,BOHO,7805 W SUNSET BLVD,58,34.0981,118.3596,,,,,2.0,,4.0,1.0,,1.0,,,3.0,2.0,,1.0,,,,,1.0,5.0,,,1.0,,7.0,2.0,2.0,4.0,1.0,,
22582,LOS HUASTECOS,4501 S ALAMEDA ST,58,34.0026,118.2392,1.0,,7.0,1.0,48.0,14.0,2.0,28.0,2.0,,,,1.0,,,,,,,,3.0,5.0,,,5.0,,,,,,,,
22586,MAMAS HOUSE I SOUL FOOD LLC,3864 CRENSHAW BLVD,58,34.0157,118.3347,,,,,,,1.0,,,,,,,,,,,,,,,,,,,,,,,,,,
22590,METRO DELI,1422 W 6TH ST,58,34.0562,118.2675,,,,,,,4.0,,,,,,,,,,,,,,2.0,,,,1.0,,,,,1.0,,,
22656,RESTAURANT RINCON TAURINO,2308 W 11TH ST,58,34.0512,118.2832,,,,,,,1.0,,,,,,,,,,,,,,,,,,,,,,,,,,
22657,RESTORANTE EL CHALATECO,3333 N EASTERN AVE,58,34.0845,118.1782,,,,,,,1.0,1.0,,,,,,,,,,,,,2.0,1.0,,,,,,,,,,,
22658,RINCON HONDURENO,1654 W ADAMS BLVD,58,34.0325,118.2989,,,,,,,3.0,,,,,,,,,,,,,,,1.0,,,,,,,,,,,
22677,SKEWS,300 S GRAND AVE,58,34.0528,118.2511,,,6.0,1.0,,,9.0,,22.0,11.0,15.0,1.0,2.0,55.0,,16.0,,,2.0,,5.0,33.0,,3.0,5.0,,3.0,5.0,10.0,61.0,,,1.0
22696,TACOS LOS CARNALES,4370 S CENTRAL AVE,58,34.0044,118.2563,,1.0,,,,,1.0,,,,,,,,,,,,,,,,,,,,,,,,,,
22711,UMEKEN HEALTH PLAZA,3504 W 8TH ST,58,34.0575,118.3068,,,1.0,,4.0,1.0,1.0,2.0,,,,,,,,,,,,,,2.0,,,,,1.0,,,,,,
22731,Z GAME CAFE,974 S VERMONT AVE STE F,58,34.0532,118.2914,,,,,1.0,1.0,1.0,,,,,,,,,,,,,,1.0,1.0,,,,,,1.0,3.0,,,,
22742,ABBQ DIM SUM BAKERY RESTAURANT,640 N BROADWAY,58,34.0592,118.2397,,,1.0,,1.0,,2.0,2.0,,,,,,,,,,,,,1.0,,,,,,,,3.0,,,,
22816,BEAUJOLAIS BOULANGERIE,1661 COLORADO BLVD,58,34.1396,118.2029,,,,,,,2.0,,,,,,,,,,,,,,1.0,1.0,,,,,,,3.0,,,,
22855,CHEFS LIKE IT HOT,624 W 28TH ST,58,34.0262,118.27799999999999,,,,,,,1.0,,,,,,,,,,,,,,,1.0,,,,,,,,,,,
22859,CHON MARISCOS SEAFOOD REST,2424 S SAN PEDRO ST,58,34.0229,118.2602,1.0,,1.0,,3.0,1.0,1.0,,,,,,,,,,,,,,,,,,,,,,,,,,
22875,COFFEE HOUSE CONA,425 S WESTERN AVE STE D,58,34.0666,118.3092,,,1.0,,,,3.0,1.0,,,,,,,,,,,,,1.0,1.0,,,,,,,4.0,,,,
22894,D J BIBINGKAHAN INC,190 S VERMONT AVE,58,34.0706,118.2915,,,,,,,2.0,,,,,,,,,,,,,,,,,,,,,,,,,,
22915,MAGNOLIA FOODS INC,317 E 12TH ST,58,34.0362,118.257,,,,,9.0,1.0,5.0,4.0,,,,,,,,,,,,,,1.0,,,,,,,,,,,
22929,EL RINCON DE COYOACAN,4020 W WASH BLVD STE 4,58,34.0398,118.32799999999999,,,,,,,2.0,,,,,,,,,,,,,,2.0,,,,,,,,,,,,
22969,A&E CATERING CO,1203 N CHEROKEE AVE,58,34.0927,118.3353,,,,,,,1.0,,,,,,,,,,,,,,,,,,,,,,,,,,
22987,GRILL AT 4651,4651 W ADAMS BLVD,58,34.0326,118.3418,,,,,,,4.0,,,,,,,,,,,,,,2.0,,,,1.0,,,,,,,,
23003,HIGHRISE CAFE,404 S FIGUEROA ST STE 402,58,34.0533,118.2559,,,2.0,,13.0,,28.0,15.0,,,,,,2.0,,1.0,,,7.0,,12.0,7.0,,3.0,,,1.0,3.0,3.0,1.0,,,
23065,MICHAEL JAYS PIZZERIA AND BAR,643 N SPRING ST,58,34.0589,118.2384,,,,,,,4.0,,,,,,,,,,,,,,,,,,,,,,1.0,,,,
23081,COCO POP INC,421 N GENESEE AVE,58,34.0704,118.3492,,4.0,19.0,9.0,47.0,29.0,42.0,98.0,5.0,4.0,5.0,2.0,7.0,45.0,,12.0,,,4.0,,60.0,345.0,,13.0,40.0,,56.0,42.0,38.0,16.0,10.0,22.0,3.0
23111,ANGELI CALIFORNIA A PARTNRSHIP,7274 MELROSE AVE,58,34.0833,118.348,,,,,1.0,,3.0,,,,,,,,,,,,,,2.0,,,,,,,,,,,,
23273,LEMONGRASS VIETNAMESE RESTAURA,1860 COLO BLVD STE 103,58,34.1391,118.2082,,,,,,,1.0,,,1.0,,,,,,,,,,,1.0,,,,,,,,3.0,1.0,,,
23275,TACO BELL,1401 W M L KING JR BLVD,58,34.0014,118.3113,2.0,3.0,17.0,3.0,19.0,20.0,21.0,34.0,2.0,1.0,3.0,1.0,2.0,6.0,,3.0,,,3.0,,57.0,91.0,,27.0,27.0,,4.0,12.0,12.0,8.0,10.0,14.0,
23306,HYUN DAI RESTAURANT,3625 W 6TH ST STE 120,58,34.0637,118.3009,,,1.0,,1.0,,2.0,3.0,,,,,1.0,,,,,,,,1.0,6.0,,,,,,2.0,5.0,,,1.0,
23360,BELLISSIMO CAFE,2501 COLORADO BLVD,58,34.1415,118.2211,,,2.0,,1.0,,5.0,1.0,,1.0,,,1.0,,,,,,,,3.0,,,,,,,1.0,3.0,,,,
23391,5725 YORK CORP,5725 YORK BLVD,58,34.1189,118.1932,,,,,,,3.0,,,,,,,,,,,,,,,,,,1.0,,,,,,,,
23444,JUICE CLUB INC,11911 SAN VICENTE BLVD,58,34.0529,118.47,,,3.0,,3.0,1.0,3.0,4.0,1.0,2.0,1.0,1.0,4.0,32.0,,12.0,,,,,4.0,18.0,,2.0,,,5.0,6.0,58.0,13.0,,17.0,
23489,SUBWAY,10250 SANTA MONICA BLVD,58,34.06,118.4197,1.0,6.0,16.0,1.0,151.0,13.0,55.0,129.0,1.0,1.0,1.0,,1.0,4.0,,,,,,,23.0,18.0,,3.0,5.0,,2.0,3.0,4.0,,2.0,,3.0
23544,1739 PUBLIC HOUSE,1739 N VERMONT AVE,58,34.1024,118.2919,,,,,,,4.0,,,,,,,1.0,,,,,,,1.0,1.0,,,,,,1.0,,,,,
23580,LOS ARCOS RESTAURANT,5719 WHITTIER BLVD,58,34.0185,118.1476,,,,1.0,,,2.0,,,,,,,1.0,,1.0,,,,,,,,,,,,,1.0,,,1.0,
23591,CIRCA NY RESTAURANT,8622 W PICO BLVD,58,34.0537,118.3792,,,1.0,,,,1.0,,,,,,,,,,,,,,,,,,,,,,,,,,
23710,KABOOM RESTAURANT,4641 W WASHINGTON BLVD,58,34.0399,118.3407,,,,,,,1.0,,,,,,,,,,,,,,1.0,,,,,,,,,,,,
23741,EL PICANTE EXPRESS,6600 E OLYMPIC BLVD,58,34.0113,118.1307,,,2.0,,,,3.0,1.0,2.0,,,,,,,,,,,,,,,1.0,,,1.0,,,,,,
23873,J & G EUROPEAN DELICATESSEN,1748 N VERMONT AVE,58,34.1025,118.2916,,,1.0,,1.0,,1.0,,,,,,,,,,,,,,,,,,,,,,,,,,
23876,MYOUNG POOM CATERING,1713 E VERNON AVE,58,34.004,118.2427,,1.0,4.0,,2.0,,8.0,1.0,2.0,,,1.0,,,,,,,,,3.0,,,,1.0,,,,2.0,,,1.0,
23884,ELEVATE,811 WILSHIRE BLVD,58,34.0496,118.2583,,,1.0,,1.0,1.0,5.0,3.0,4.0,,2.0,,5.0,5.0,,4.0,,,,,,24.0,,1.0,1.0,,,,,17.0,1.0,2.0,
23951,MC CARTHYS SHOP INC,800 N ALAMEDA ST,58,34.0562,118.2373,,,2.0,,,,4.0,1.0,,,,,,3.0,,,,,,,1.0,8.0,,4.0,1.0,,,,,1.0,,1.0,
23982,LA SNACK SHOP,843 S LOS ANGELES ST,58,34.0416,118.2529,,,,,9.0,,3.0,,,,,,,,,,,,,,,9.0,,1.0,,,,,,,,,
23991,VERMONT RESTAURANT,1714 N VERMONT AVE,58,34.1022,118.2916,,,1.0,,,,5.0,,,,,,,,,,,,,,,1.0,,,,,4.0,3.0,,3.0,,,
24079,1241 VINE LLC,1241 VINE ST,58,34.0937,118.3267,,,1.0,,,2.0,6.0,1.0,,,,,,1.0,,,,,,,3.0,5.0,,1.0,,,,,,,,,
24129,HANGAR 19 GRILL,12181 BLUFF CREEK DR,58,33.9746,118.4289,,,,,,,4.0,2.0,,,1.0,1.0,,7.0,,3.0,,,,,,18.0,,1.0,,,4.0,1.0,3.0,1.0,2.0,,
24278,NITE PARTNERS,8707 PICKFORD ST APT 6,58,34.0503,118.3824,,,,,,,1.0,,,,,,,,,,,,,,,2.0,,,,,1.0,,,,,,
24342,SEOUL SOON DAAE HOUSE,928 S WESTERN AVE STE 133,58,34.0548,118.3089,,,7.0,,70.0,5.0,23.0,39.0,1.0,,,,1.0,3.0,,2.0,,,,,11.0,8.0,,1.0,,,1.0,,5.0,,,,
24382,TAP IT LLC,2105 2ND AVE,58,34.0378,118.319,,,,,,,1.0,,,,,,,,,,,,,,,,,,,,,,,,,,
24487,CRAVIN BEEF BITES,4216 VICTORINE ST,58,34.0864,118.1926,,,,,,,1.0,,,,,,,,,,,,,,,,,,,,,,,,,,
24556,TUK CORPORATION,3132 W OLYMPIC BLVD,58,34.0524,118.3043,,,1.0,,,,3.0,,,,,,,1.0,,,,,,,,,,,,,,,,,,,
24562,GALLEGOS MEXICAN DELI,12720 VENICE BLVD APT 302,58,34.001,118.4383,,,,,,,1.0,1.0,,,,,,,,,,,,,,,,,,,,,,,,,
24578,ASHOORI FARSHAD DAN,2912 S SEPULVEDA BLVD,58,34.0282,118.4291,,,,,,,2.0,,,,,,,,,,,,,,,,,,,,,,,,,,
24579,SAMS AFTER DARK,1501 E WASHINGTON BLVD,58,34.022,118.2457,,2.0,,,,,2.0,,,,,,,,,,,,,,,1.0,,,,,,,,,,,
24582,CHULADAS,3743 W SUNSET BLVD,58,34.0908,118.2781,,,,,,,1.0,,,,,,,,,,,,,,,,,,,,,,,,,,
24646,CHEF IN KITCHEN,3870 CRENSHAW BLVD 412,58,34.0155,118.3347,1.0,,1.0,,,2.0,3.0,5.0,,7.0,1.0,,5.0,8.0,,2.0,,,,,20.0,18.0,,3.0,2.0,,4.0,3.0,6.0,3.0,1.0,13.0,1.0
24801,SUPER PHO TERIYAKI,10953 VENICE BLVD,58,34.0152,118.4135,,,1.0,,,1.0,2.0,2.0,,,,,1.0,,,,,,,,3.0,2.0,,,1.0,,,1.0,2.0,,,,
24964,WASABI JAPANESS NODDLE HOUSE 2,3183 WILSHIRE BLVD,58,34.0619,118.2911,,,3.0,1.0,3.0,,3.0,5.0,,,,,,3.0,,2.0,,,,,3.0,8.0,,,,,,,5.0,1.0,,,
25040,MARALAS CATERING,402 EUCLID AVE,58,34.0414,118.1854,3.0,6.0,30.0,13.0,12.0,9.0,20.0,35.0,1.0,1.0,,,3.0,10.0,,4.0,,,,,34.0,91.0,,26.0,34.0,,6.0,4.0,6.0,2.0,2.0,7.0,
25120,SABYS CAFE,12900 VENICE BLVD,58,33.9997,118.4412,,,,,,,1.0,,,,,,,,,,,,,,,,,,,,,,1.0,,,,
25138,BAEK JEONG KOREAN BBQ,3465 W 6TH ST,58,34.0637,118.29700000000001,,,3.0,,8.0,2.0,9.0,6.0,,,,,,1.0,,3.0,,,,,7.0,4.0,,,,,,5.0,,,1.0,,
25159,SUNDAY NIGHT DINNER,2132 WELLINGTON RD,58,34.0372,118.335,,,,,,,1.0,,,,,,,,,,,,,,,,,,,,1.0,,,,,,
25221,GARDEN CAFE,6420 WILSHIRE BLVD,58,34.0636,118.3686,,,1.0,2.0,1.0,,2.0,5.0,1.0,4.0,3.0,1.0,,10.0,,4.0,,,,,1.0,13.0,,,2.0,,2.0,3.0,,17.0,,1.0,
25254,ORIGINAL PHILIPPE,1001 N ALAMEDA ST,58,34.0595,118.2369,,,,,,,2.0,,,,,,,,,,,,,,,,,,,,,,,,,,
25289,DRAGON LOCO,1011 W FLORENCE AVE,58,33.9746,118.292,,,,,,,3.0,,,,,,,,,,,,,,,,,,,,,,,,,,
25426,SANDWICH JOINT,1068 W 7TH ST,58,34.0503,118.2633,,,,,,,1.0,,,,,,,,,,,,,,,,,,,,,1.0,,,,,
25497,MISOYA SUSHI,6357 WILSHIRE BLVD,58,34.0637,118.367,,,,,,,5.0,,,,,,,,,,,,,,1.0,,,,1.0,,,,,,,,
25616,CHAN DARA INC,117 N BEACHWOOD DR,58,34.0739,118.3217,,,,,,,1.0,,,,,,,,,,,,,,,1.0,,,,,,,,,,,
25617,KOKOMO,7385 BEVERLY BLVD,58,34.0762,118.3506,,,,,1.0,,2.0,,,,,,,,,,,,,,,,,,,,,,,,,,
25750,SANDWICH SHOP,531 W 6TH ST,58,34.0447,118.25200000000001,,4.0,9.0,2.0,65.0,7.0,31.0,56.0,6.0,3.0,,,,9.0,,1.0,,,1.0,,10.0,20.0,,,7.0,,,5.0,2.0,5.0,3.0,2.0,
25784,BOTTLEROCK,1050 S FLOWER ST,58,34.0436,118.2633,,,,,1.0,1.0,3.0,4.0,,,1.0,,,1.0,,,,,,,,15.0,,,1.0,,3.0,1.0,1.0,,,,
25794,GJC ENTERPRISES LLC,2121 AVENUE OF THE STARS,58,34.0554,118.4131,,,2.0,,3.0,1.0,4.0,7.0,1.0,6.0,16.0,3.0,5.0,20.0,,13.0,,,,,,49.0,,,3.0,,48.0,13.0,4.0,55.0,4.0,4.0,1.0
25827,TAQERIA Y SALA MEX,2103 S ORANGE DR APT 2,58,34.0387,118.3506,,,,,,,1.0,,,,,,,,,,,,,,1.0,,,,,,,,,,,,
25877,GRILL TABLE,103 E 9TH ST,58,34.0414,118.2547,,,,,,,1.0,,,,,,,,,,,,,,,,,,,,,,,,,,
25925,WENDYS TORTAS 2,3300 N BROADWAY,58,34.0736,118.2063,,,,,,,3.0,1.0,,,,,,,,,,,,,2.0,1.0,,,,,1.0,,,,,,
25940,PERCH,448 S HILL ST STE 1312,58,34.0493,118.251,1.0,1.0,1.0,,3.0,,2.0,24.0,,,1.0,,,7.0,,2.0,,,,,2.0,10.0,,,24.0,,3.0,3.0,2.0,5.0,2.0,,
26067,CRYSTAL VENTURES INC,8371 W SUNSET BLVD,58,34.0956,118.37200000000001,1.0,,,,,,3.0,,,,,,,,,,,,,,,1.0,,,,,,,,,,,
26068,QUSQO BISTRO AND GALLERY,11633 SANTA MONICA BLVD,58,34.0444,118.4546,,,,,,,2.0,1.0,,,,,,,,,,,,,,,,,,,,,,,,,
26161,3RD STREET RESTAURANT,4254 W 3RD ST,58,34.0688,118.3069,,,,,1.0,,1.0,,,1.0,,1.0,,,,,,,,,2.0,1.0,,,,,,2.0,,,,,
26307,J A N GROUP INC,10800 W PICO BLVD STE 193,58,34.0404,118.4276,1.0,4.0,16.0,,141.0,14.0,19.0,106.0,,,,,1.0,3.0,,,,,,,17.0,13.0,,4.0,3.0,,2.0,1.0,5.0,,2.0,1.0,
26503,KATCHI DELI CAFE,1001 WILSHIRE BLVD,58,34.0516,118.2615,,,,,,,2.0,,,,1.0,,,2.0,,2.0,,,,,,2.0,,,,,,,1.0,1.0,,1.0,
26600,IN-N-OUT BURGERS INC,9245 VENICE BLVD,58,34.0264,118.3938,,,,,,,2.0,,,,,,,,,,,,,,,,,,,,,,,,,,
26602,IN-N-OUT BURGERS INC,9149 S SEPULVEDA BLVD,58,33.9539,118.3963,,,,,,,2.0,,,,,,,,,,,,,,,,,3.0,,,,,,,,,
26616,IN-N-OUT BURGERS INC,7009 W SUNSET BLVD,58,34.0981,118.3417,,,,,,,2.0,,,,,,,,,,,,,,,,,,,,,,,,,,
26665,NOODLE WORLD INC,1118 WESTWOOD BLVD,58,34.0604,118.445,,,1.0,,,,4.0,,,,,,,,,2.0,,,,,1.0,1.0,,1.0,,,,,,,,,
26701,MI TIERRA RESTAURANT,5949 WHITTIER BLVD,58,34.0174,118.1428,,,,,,,4.0,,,,,,,,,,,,,,,,,,,,,,,,,,
26784,RAMONAS MEXICAN FOOD PDTS INC,6900 S SAN PEDRO ST,58,33.9768,118.2694,,,,,,,1.0,,,,,,,,,,,,,,,,,,,,,,,,,,
26933,PUPUSERIA JUTIAPA,5701 S VERMONT AVE,58,33.9903,118.2916,,,,,,1.0,3.0,2.0,,,,,,,,,,,,,3.0,1.0,,,,,1.0,,1.0,,,,
26943,SAFFRON INDIAN CUSINE,505 S FLOWER ST STE B250,58,34.0515,118.2563,,,8.0,2.0,6.0,1.0,18.0,10.0,,,,,,1.0,,,,,,,8.0,4.0,,,1.0,,,2.0,8.0,,,,
26976,HOMER & EDYS BISTRO,2839 S ROBERTSON,58,34.0361,118.3891,,,,,,,4.0,2.0,,,,,,,,,,,,,,,,,,,,,,,,,
27015,CALIFORNIA RESTAURANT NEWS,116 S WESTERN AVE,58,34.0726,118.3089,,,,,,,3.0,,,,,,,,,,,,,,2.0,2.0,,1.0,,,,,,,,,
27054,THAIDAL WAVE RESTAURANT,351 S ST ANDREWS PL,58,34.0664,118.31,,4.0,11.0,3.0,13.0,10.0,29.0,31.0,2.0,1.0,3.0,2.0,4.0,22.0,,6.0,,,2.0,,26.0,69.0,,2.0,10.0,,7.0,8.0,28.0,6.0,3.0,6.0,
27150,BENNETT INC,FARMERS MARKET STORE 548,58,34.073,118.3596,,,,,,,1.0,,,,,,,,,,,,,,,,,,,,,,,,,,
27251,CAFE GRAZIELLA,2960 N BEVERLY GLEN CIR,58,34.1277,118.4444,,,,,,,3.0,1.0,,,,,,,,,,,,,2.0,,,,1.0,,,,,,,,
27289,TAMS BURGERS,6225 S SAN PEDRO ST,58,33.965,118.274,5.0,2.0,43.0,28.0,26.0,40.0,28.0,55.0,1.0,1.0,2.0,,2.0,14.0,,5.0,,,7.0,,64.0,105.0,,63.0,35.0,,5.0,7.0,14.0,5.0,9.0,33.0,
27330,YANG GA NE,1676 W 11TH ST,58,34.0416,118.2653,2.0,6.0,16.0,13.0,137.0,17.0,33.0,49.0,6.0,,2.0,,6.0,12.0,,4.0,,,3.0,,27.0,86.0,,28.0,21.0,,2.0,7.0,10.0,5.0,7.0,9.0,
27472,CRENSHAW LIVE BAR GRILL,3888 CRENSHAW BLVD,58,34.0151,118.3346,,,,,,,2.0,,,,,,2.0,1.0,,,,,,,,1.0,,,,,,,,,,,
27476,BLUE DAHLIA CAFE,738 E 3RD ST,58,34.0455,118.2368,,,,,,,7.0,,,,,,,,,,,,,,1.0,,,,,,2.0,1.0,,,,,
27477,ZIP FUSION INC,744 E 3RD ST,58,34.0455,118.2368,,,,,,,7.0,,,,,,,,,,,,,,1.0,,,,,,2.0,1.0,,,,,
27529,NICOLAS,960 S GERHART AVE,58,34.0163,118.147,,,,,,,2.0,,,,,,,,,,,,,,,,,,,,,,,,,,
27627,UNICORN,1807 E OLYMPIC BLVD,58,34.0277,118.2388,,,1.0,,28.0,2.0,2.0,3.0,2.0,,,,,7.0,,2.0,,,,,1.0,36.0,,,,,2.0,,,,,,
27640,FULL HOUSE BUFFET,4917 WHITTIER BLVD,58,34.0217,118.163,,,,,,,1.0,1.0,,,,,,,,,,,,,,,,,,,,,,,,,
27653,ISO FUSION CAFE,1108 GAYLEY AVE,58,34.06,118.4462,,,,,,,2.0,,,,,,,,,,,,,,,,,,,,,,,,,,
27677,CALIFORNIA PITA & GRILL III,12001 WILSHIRE BLVD,58,34.0452,118.4662,,,,,,,5.0,,,,,,,,,,,,,,,,,,,,,,,,,,
27774,HELLER ROBERTS,5851 W SUNSET BLVD,58,34.0981,118.3169,,,,,,,2.0,,,,,,,,,,,,,,,,,,,,,,,,,,
27779,PIZZA HOUSE,5203 FOUNTAIN AVE,58,34.0952,118.3026,,,,,,,3.0,1.0,,,,,,,,,,,,,,1.0,,,,,,,,,,,
27825,BIG ALS TATTOOS,1855 W MANCHESTER AVE,58,33.96,118.3108,,1.0,5.0,,1.0,1.0,6.0,6.0,,,,,,,,,,,,,7.0,3.0,,,,,,,1.0,,,,
27956,DETROIT,1531 N DETROIT ST,58,34.0985,118.3457,,,,,,1.0,1.0,,,,,,,,,,,,,,,5.0,,,,,,1.0,,,,,
28114,SANTA MARIA BBQ COMPANY,10448 CHEVIOT DR,58,34.0376,118.4128,,,,,,,1.0,,,,,,,,,,,,,,,,,,,,,,,1.0,,,
28213,SUMMER PLACE REPS,110 E 9TH ST STE A703,58,34.0412,118.2548,2.0,15.0,11.0,5.0,261.0,12.0,24.0,74.0,9.0,6.0,6.0,1.0,3.0,13.0,,11.0,,,,,24.0,149.0,,4.0,2.0,,5.0,7.0,8.0,3.0,3.0,3.0,3.0
28342,GOTTSUI RESTAURANT,2119 SAWTELLE BLVD,58,34.0389,118.4421,,,,,,,8.0,,,,,,,,,,,,,,,,,,,,,,,,,,
28390,TANGERINE CHINESE RESTAURANT,123 ASTRON E S ONIZUKA ST,58,34.0504,118.242,,,,,1.0,,6.0,3.0,1.0,,,,,1.0,,,,,,,,1.0,,,,,,,,,,,
28402,COCOS BAKERY & RESTAURANT,901 S VERMONT AVE,58,34.0558,118.2917,,,,,,,4.0,,,,,,,,,,,,,,,,,,,,,,,,,,
28445,ELVAS FAMILY ICE CREAM PARLOR,2701 N BROADWAY,58,34.0738,118.2141,,,,,1.0,,2.0,2.0,,,,,,,,,,,,,3.0,2.0,,1.0,2.0,,,1.0,2.0,,,,
28533,OH MA NEE,807 S ARDMORE AVE,58,34.0597,118.3013,2.0,2.0,11.0,1.0,13.0,17.0,30.0,29.0,2.0,2.0,1.0,,11.0,18.0,,4.0,,,4.0,,31.0,74.0,,6.0,12.0,,8.0,7.0,23.0,10.0,6.0,9.0,
28552,DAVES DELI INC,213 S MEDNIK AVE,58,34.0344,118.162,,,,,,,3.0,,,,,,,,,,,,,,,,,,,,,,,,,,
28618,BLACK HOGG INC,2852 W SUNSET BLVD,58,34.0823,118.2728,,,1.0,,,,2.0,,,,,,,,,,,,,,2.0,,,,,,,,,,,,
28643,MARIE CALLENDER PIE SHOPS INC,611 WILSHIRE BLVD STE 810,58,34.0486,118.2567,,,,,1.0,3.0,1.0,22.0,,1.0,1.0,,2.0,11.0,,3.0,,,1.0,,2.0,25.0,,,5.0,,,2.0,1.0,10.0,2.0,,
28730,ADDIS ETHIOPIAN,1025 S FAIRFAX AVE,58,34.0575,118.3643,,,1.0,,,,2.0,3.0,,,,,,,,,,,,,1.0,1.0,,,,,,,,,,,
28754,BONCHON CHICKEN,345 S ALEXANDRIA AVE,58,34.0682,118.2981,,,,,,,1.0,1.0,,,,,,3.0,,,,,,,,4.0,,,,,,,,,,,
28762,CITY BEAN,5051 W JEFFERSON BLVD,58,34.0256,118.3538,,,,,,,1.0,,,,,,,,,,,,,,,1.0,,,1.0,,,,,,,,
28806,LA FRAICHE INC,1919 S LOS ANGELES ST,58,34.0302,118.2639,,,,,1.0,,1.0,,1.0,,,,,,,,,,,,,3.0,,,2.0,,,,,,,,
28823,OISHI TERIYAKI,1830 W 8TH ST STE C,58,34.0534,118.2749,,1.0,1.0,,,2.0,3.0,2.0,,1.0,,,3.0,,,,,,,,2.0,2.0,,,,,,,,2.0,,,
28867,YAMATO ENTERPRISES LLC,1099 WESTWOOD BLVD,58,34.0609,118.4456,,,,,,,1.0,,,,,,,,,,,,,,,1.0,,,,,,,,,,,
28869,YOGURTLAND SUNSET,5541 W SUNSET BLVD,58,34.0997,118.3272,1.0,2.0,15.0,11.0,44.0,20.0,51.0,76.0,9.0,6.0,3.0,,4.0,15.0,,6.0,,,8.0,,37.0,140.0,,18.0,10.0,,54.0,30.0,8.0,8.0,7.0,9.0,2.0
28927,LOS ANGELES EXPRESS CHICKEN,2180 WESTWOOD BLVD STE 1G,58,34.0442,118.4318,,,,,1.0,3.0,7.0,8.0,1.0,1.0,1.0,,4.0,,,1.0,,,,,9.0,4.0,,,1.0,,,5.0,5.0,,1.0,,
28929,LAMONICAS NY PIZZA,518 W 6TH ST,58,34.0481,118.2545,,,,,,,5.0,,,,,,,,,,,,,,,2.0,,,1.0,,,1.0,,,,,
28960,BREEDEN ENTERPRISES,12405 VENICE BLVD STE 319,58,33.6562,117.663,3.0,,1.0,,2.0,1.0,1.0,5.0,,2.0,,,,3.0,,1.0,,,,,3.0,28.0,,1.0,,,5.0,5.0,2.0,1.0,,1.0,
28989,TEQUILA NIGHT CLUB & REST,1108 S VANCOUVER AVE,58,34.0178,118.1605,,,,,,,1.0,,,,,,,,,,,,,,,,,,,,,,,,,,
28998,NU PIZZA HOLDING CORP,3550 WILSHIRE BLVD 1725,58,34.0615,118.3022,,,9.0,,5.0,5.0,8.0,15.0,4.0,27.0,14.0,,8.0,35.0,,38.0,,,3.0,,9.0,84.0,,7.0,3.0,,15.0,14.0,28.0,112.0,10.0,14.0,
29093,HAN SONG ENTERPRISE LLC,1925 W OLYMPIC BLVD,58,34.051,118.2782,,,,,,,1.0,,,,,,,,,,,,,,,,,,,,,,,,,,
29256,BOILING SHRIMP MELROSE,4814 MELROSE AVE,58,34.0898,118.294,5.0,4.0,17.0,9.0,20.0,25.0,30.0,52.0,2.0,1.0,2.0,,6.0,14.0,,3.0,,,3.0,,36.0,129.0,,24.0,27.0,,24.0,9.0,32.0,3.0,2.0,7.0,1.0
29332,TAVERN,11648 SAN VICENTE BLVD,58,34.0535,118.462,,,6.0,,4.0,,6.0,6.0,,,1.0,,,11.0,,3.0,,,,,1.0,4.0,,,,,,3.0,1.0,2.0,,,1.0
29518,HARVEYS,7955 MELROSE AVE,58,34.0839,118.3629,2.0,,1.0,,3.0,,1.0,2.0,,,,,,,,,,,,,2.0,,,,,,,,,,,,
29683,88 BUFFET LA INC,11819 WILSHIRE BLVD,58,34.0479,118.463,,,,,,,12.0,,,2.0,,,3.0,,,,,,,,2.0,2.0,,1.0,1.0,,,4.0,15.0,,1.0,,
29714,ARROYO BAR,7026 S BROADWAY,58,33.9761,118.2781,,,,,,,2.0,,,,,,,,,,,,,,,,,,,,,,,,,,
29770,LA BOTTEGA MARINO,11363 SANTA MONICA BLVD,58,34.0461,118.4501,,,1.0,,,,1.0,2.0,,,,,,,,,,,,,1.0,,,,,,,,,,,,
29841,SECRET,3950 BEVERLY BLVD,58,34.0761,118.2947,,,,,,,2.0,,,,,,,,,,,,,,1.0,1.0,,,,,,,,,,,
29852,CMJ GROUP INC,950 S FLOWER ST STE 105,58,34.0449,118.2619,,,,,1.0,2.0,2.0,2.0,,1.0,1.0,,,6.0,,3.0,,,,,,15.0,,,,,2.0,2.0,,2.0,,1.0,
29853,TACONE USA INC,4801 WILSHIRE BLVD,58,34.0621,118.3349,,,,,,,2.0,1.0,,2.0,1.0,,,11.0,,4.0,,,1.0,,1.0,13.0,,,2.0,,3.0,,3.0,5.0,1.0,1.0,
29880,JOSE GARCIA,466 N EZRA ST,58,34.0414,118.1854,3.0,6.0,30.0,13.0,12.0,9.0,20.0,35.0,1.0,1.0,,,3.0,10.0,,4.0,,,,,34.0,91.0,,26.0,34.0,,6.0,4.0,6.0,2.0,2.0,7.0,
29884,VILLA SOMBRERO RESTAURANT INC,6101 YORK BLVD,58,34.1141,118.1972,3.0,3.0,19.0,13.0,15.0,24.0,18.0,62.0,2.0,5.0,,,6.0,25.0,,9.0,,,1.0,,34.0,250.0,,22.0,40.0,,19.0,20.0,18.0,9.0,8.0,13.0,2.0
29924,EL DELFIN RESTAURANT,1917 S VERMONT AVE,58,34.0396,118.2917,,,,,,,3.0,,,,,,,,,,,,,,,,,,,,,,,,,,
29977,E P L,5319 W SUNSET BLVD,58,34.1061,118.291,2.0,2.0,8.0,11.0,27.0,29.0,41.0,67.0,3.0,2.0,3.0,,5.0,29.0,,13.0,,,1.0,,58.0,347.0,,20.0,32.0,,55.0,39.0,56.0,12.0,12.0,12.0,2.0
30201,BOBA BEAR,414 S WESTERN AVE STE C,58,34.0667,118.3089,,,,,,,4.0,,,,,,,,,,,,,,,,,,,,,,1.0,,,,
30240,SAPPORO SUSHI,10250 SANTA MONICA BLVD,58,34.06,118.4197,1.0,6.0,16.0,1.0,151.0,13.0,55.0,129.0,1.0,1.0,1.0,,1.0,4.0,,,,,,,23.0,18.0,,3.0,5.0,,2.0,3.0,4.0,,2.0,,3.0
30277,PEI WEI ASIAN DINER,8000 W SUNSET BLVD A110,58,34.0978,118.3651,,,2.0,1.0,2.0,1.0,8.0,2.0,,,,,,2.0,,1.0,,,,,12.0,4.0,,1.0,,,8.0,6.0,2.0,,,,
30420,LA NONNA,8570 W 3RD ST,58,34.0734,118.3789,,,,,,,3.0,3.0,,,,,,,,,,,,,,1.0,,,,,,,,,,,
30478,BEVERLY RESTAURANT GROUP LLC,8738 W 3RD ST,58,34.0734,118.3829,,,,,,2.0,2.0,3.0,,,,,,,,,,,,,1.0,2.0,,,,,,,,,,,
30499,PHO 36,616 ST PAUL AVE APT 417,58,34.0531,118.2609,,,1.0,,1.0,,1.0,1.0,,,,,,3.0,,2.0,,,,,2.0,10.0,,,,,1.0,2.0,1.0,,,,
30521,HUGOS RESTAURANTS,616 N DETROIT ST,58,34.0822,118.3449,,,,,,,4.0,,,,,,,,,,,,,,,1.0,,,,,,1.0,,,,,
30527,COFFEE MILL RESTAURANT,501 S SPRING ST,58,34.0473,118.2498,,,1.0,,,,3.0,1.0,,,,,,,,2.0,,,1.0,,1.0,11.0,,1.0,,,1.0,3.0,,,,,
30571,Q BY PASQUALE,5616 SAN VICENTE BLVD,58,34.0539,118.3553,,,,1.0,1.0,,4.0,,,,,,,,,,,,,,5.0,,,,1.0,,,1.0,1.0,,,,
30660,BAR SHOWROOM,843 S LOS ANGELES ST,58,34.0416,118.2529,,,,,9.0,,3.0,,,,,,,,,,,,,,,9.0,,1.0,,,,,,,,,
30747,PEPES HOT DOGS,4925 W SLAUSON AVE,58,33.9876,118.3632,2.0,,,,,,1.0,,,,,,,,,,,,,,,,,,,,,,1.0,,,,
30849,CAMPOS TACOS,13322 W WASHINGTON BLVD,58,33.9927,118.4428,,,,,1.0,1.0,1.0,1.0,,,,,,1.0,,,,,,,,,,,,,,1.0,,1.0,,,
30863,CHERRY PICK CAFE,208 S HILL ST,58,34.0528,118.2478,,,,,,,3.0,,,,,,,,,,,,,,,,,,,,,,,,,,
30899,MAGENTAS,928 S WESTERN AVE STE 313,58,34.0548,118.3089,,,7.0,,70.0,5.0,23.0,39.0,1.0,,,,1.0,3.0,,2.0,,,,,11.0,8.0,,1.0,,,1.0,,5.0,,,,
30913,CARNITAS MICHOACANAS,530 S OCCIDENTAL BLVD,58,34.0627,118.2768,1.0,4.0,12.0,5.0,13.0,4.0,27.0,24.0,4.0,,,,7.0,24.0,,2.0,,,,,32.0,54.0,,2.0,12.0,,2.0,4.0,40.0,13.0,6.0,7.0,
30977,JACK IN BOX INC,2511 S VERMONT AVE,58,34.0334,118.2917,,,,,,,1.0,,,,,,,,,,,,,,,,,,,,,,,,,,
30978,LUNA GELNDA,1441 W M L KING JR BLVD,58,34.0473,118.3341,,,,,,,1.0,,,,,,,,,,,,,,,,,,,,,,,,,,
30979,TBS FOODS INC,5075 WHITTIER BLVD,58,34.0211,118.16,,,,,,,1.0,,,,,,,,,,,,,,,,,,,,,,,,,,
31013,GOLEMAN CORP,1236 STRADELLA RD,58,34.0948,118.4549,,,,,,,1.0,,,,,,,,,,,,,,,3.0,,,,,,,1.0,,1.0,,
31147,CARLS JR RESTAURANTS,1625 W OLYMPIC BLVD,58,34.0494,118.2744,,1.0,,,,6.0,3.0,1.0,4.0,3.0,2.0,,1.0,9.0,,5.0,,,,,7.0,20.0,,,1.0,,1.0,1.0,2.0,17.0,2.0,2.0,
31154,ESPRESSO ROMA CORP,110 WESTWOOD PLZ,58,34.0732,118.4446,,,,,,,1.0,,,,,,,,,,,,,,,,,,,,,,,,10.0,,
31170,PALMS BALLROOM,950 S BROADWAY FL 5,58,34.0415,118.2565,,,,,2.0,,2.0,1.0,,,,,,,,,,,,,,1.0,,,,,1.0,2.0,,,,,
31489,MONALIZZA RESTAURANT & BANQUET,1161 N VERMONT AVE,58,34.0927,118.2919,,,,,,,2.0,,,,,,,,,,,,,,,2.0,,,,,,,,,,,
31491,PIZZA AMORE,6001 S VERMONT AVE,58,33.9857,118.2916,,2.0,1.0,,,1.0,1.0,1.0,,,,,,,,,,,,,4.0,1.0,,,,,,,,,1.0,1.0,
31492,WOODYS BBQ,1958 W FLORENCE AVE,58,33.9744,118.3124,,,,,,,3.0,,,,,,,,,,,,,,,,,,,,,,,,,,
31531,AKBAR DELUXE,1632 N DILLON ST,58,34.0894,118.2715,,,,,,,1.0,,,,,,,,,,,,,,,,,,,,1.0,,,,,,
31676,ZOSA CAFES LLC,5526 MONTEREY RD,58,34.1015,118.1868,,,2.0,,,,2.0,,,,,,,,,,,,,,,,,,,,,,,,,,
31816,23RD STREET CAFE,936 W 23RD ST,58,34.0338,118.281,,,,,,,1.0,,,,,,,,,,,,,,1.0,,,,,,,,,,,,
32002,JACK IN BOX,5555 E WASHINGTON BLVD,58,34.0002,118.1592,,,,,,,1.0,,,,,,,,,,,,,,,,,,,,,,,,,,
32009,MATCAVIH BAN,4407 S CENTRAL AVE,58,34.0037,118.2566,,1.0,,,,,2.0,,,,,,,,,,,,,,,,,,,,,,,,,,
32103,TWO NINE CAFE,2827 S HOOVER ST,58,34.0288,118.2841,,,,,,,4.0,,,,,,,3.0,,,,,,,1.0,2.0,,,,,,,,,,,
32137,METRO MANAGEMENT SYSTEMS INC,304 W CENTURY BLVD,58,33.9454,118.2786,,,,,,,3.0,,,,,,,,,,,,,,,,,,,,,,,1.0,,,
32148,CASTLE HARLAN PARTNERS III LP,11324 NATIONAL BLVD,58,34.0257,118.4321,,,,,,,2.0,,,,,,,,,,,,,,,1.0,,,1.0,,,,,,,,
32206,R&J CONCESSIONS LLC,1130 S HUDSON AVE,58,34.0454,118.3396,11.0,5.0,18.0,22.0,38.0,43.0,47.0,117.0,2.0,6.0,5.0,1.0,4.0,34.0,,11.0,,,7.0,,88.0,350.0,,47.0,51.0,,45.0,44.0,38.0,13.0,20.0,28.0,6.0
32211,YUMMY COM,1135 N MANSFIELD AVE,58,34.0914,118.3406,1.0,,,,1.0,,1.0,1.0,,,,,,1.0,,,,,,,1.0,7.0,,,,,3.0,1.0,,,,,
32231,JACK IN BOX INC,1906 CRENSHAW BLVD,58,34.0395,118.331,,,,,,,1.0,,,,,,,,,,,,,,,,,,,,,,,,,,
32269,MIRAK,1134 S WESTERN AVE STE A2,58,34.0497,118.3088,,,4.0,1.0,1.0,2.0,2.0,2.0,1.0,,1.0,,,1.0,,,,,,,5.0,6.0,,1.0,1.0,,,1.0,3.0,,,,
32292,GRACE CAFE,1221 W 3RD ST,58,34.0569,118.2581,,,,,4.0,,2.0,,,,1.0,,,2.0,,2.0,,,,,,15.0,,,1.0,,,,1.0,,,,
32358,JACK IN BOX INC,5201 WILSHIRE BLVD,58,34.0623,118.34299999999999,,,1.0,,,,1.0,,,,,,,,,,,,,,,,,,,,,,,,,,
32376,EL CHOLO DOWNTOWN,1037 S FLOWER ST,58,34.0416,118.2653,2.0,6.0,16.0,13.0,137.0,17.0,33.0,49.0,6.0,,2.0,,6.0,12.0,,4.0,,,3.0,,27.0,86.0,,28.0,21.0,,2.0,7.0,10.0,5.0,7.0,9.0,
32424,RITE AWAY LLC (NOT LLC),980 N LA CIENEGA BLVD,58,34.0888,118.3762,,,,,,1.0,1.0,,,,,,,2.0,,,,,,,2.0,6.0,,,,,,1.0,1.0,,,,
32455,CENTRAL,1710 N LAS PALMAS AVE,58,34.1019,118.3359,,,,,,,3.0,,,,,,,,,,,,,,,,,,,,,1.0,,,,,
32488,DESERT ROSE BAR & LOUNGE INC,1700 HILLHURST AVE,58,34.1019,118.2872,,,,,,,1.0,,,,,,,,,,,,,,,,,,,,,,,,,,
32536,JONES LOUISIANA FAMOUS FRIED,9914 S BROADWAY,58,33.9462,118.2779,,,1.0,,,,1.0,,,,,,,,,,,,,,2.0,,,,,,,,,,,,
32544,LINDA BISTRO INC,11318 S MAIN ST,58,33.9317,118.2737,,,,,1.0,,2.0,,,,,,,,,,,,,,1.0,,,,,,,,,,,,
32558,MANILA SUNSET,1016 N VERMONT AVE,58,34.0899,118.2915,,,1.0,,,,5.0,1.0,3.0,1.0,,,2.0,1.0,,,,,,,3.0,3.0,,,,,,2.0,2.0,,,,
32591,ITS THAI LLC,1311 GLENDALE BLVD STE A,58,34.0785,118.2605,,,1.0,,,,4.0,,,,,,,,,,,,,,3.0,,,,,,1.0,,,,,,
32666,SHOLEH RESTAURANT,11330 SANTA MONICA BLVD,58,34.046,118.4494,,,,,,,5.0,,,1.0,,,,,,,,,,,,,,,,,,,,1.0,,1.0,
32682,EATERTAINMENT LLC,8730 W SUNSET BLVD,58,34.0914,118.3814,,,,,1.0,3.0,3.0,,1.0,,3.0,,1.0,1.0,,2.0,,,,,1.0,9.0,,,,,7.0,8.0,1.0,,,,
32826,STONE ROSE LOUNGE,8555 BEVERLY BLVD,58,34.0762,118.3779,,,,,,,4.0,2.0,,,,,,,,,,,2.0,,1.0,,,,,,,,,,,,
32888,BURGER KING - FALLBROOK,400 WESTWOOD PLZ,58,34.0736,118.4449,,,,,,,1.0,,,,,,,,,,,,,,,,,,,,,,,,,,
32955,LA VIDA,1448 N GOWER ST,58,34.097,118.3221,,,,,,,3.0,,,,,,,,,,,,,,,1.0,,1.0,1.0,,1.0,,,,,,
32958,GRASS BURGER LLC,6333 W 3RD ST STE 110,58,34.0714,118.3598,,1.0,21.0,1.0,13.0,4.0,38.0,47.0,,,,,,,,2.0,,,,,3.0,5.0,,,3.0,,,,3.0,,,1.0,1.0
33136,SACKOS SUBS LLC,801 GRAMERCY DR APT 403,58,34.0579,118.3122,,,,,,,1.0,,,,,,,,,,,,,,1.0,1.0,,,,,,,,,,,
33152,CRISPY CRUST INC,3111 GLENDALE BLVD STE 4,58,34.1165,118.2628,,,1.0,,,,2.0,,,,,,,2.0,,,,,,,,,,,,,,,,,,,
33194,BASKIN-ROBBINS 27,3701 WILSHIRE BLVD STE 1,58,34.0341,118.3774,2.0,1.0,2.0,,6.0,3.0,6.0,13.0,6.0,6.0,3.0,,5.0,17.0,,12.0,,,,,1.0,35.0,,4.0,1.0,,5.0,9.0,12.0,48.0,1.0,4.0,1.0
33282,JUANS RESTAURANT,307 E JEFFERSON BLVD,58,34.0172,118.2691,,3.0,3.0,2.0,32.0,16.0,4.0,28.0,1.0,,,,,1.0,,,,,,,7.0,2.0,,2.0,4.0,,1.0,,,1.0,,1.0,
33343,WOK CANO,913 S FIGUEROA ST,58,34.0459,118.2632,,,,,,,2.0,,,,,,,,,,,,1.0,,,,,1.0,,,,,,,,,
33369,BIERGARTEN,206 N WESTERN AVE,58,34.0753,118.3089,,,,,,,1.0,,,,,,,,,,,,,,,,,,1.0,,,1.0,,,,,
33450,TACOS LOPEZ,1433 E 48TH ST,58,34.0087,118.2589,7.0,10.0,38.0,20.0,27.0,37.0,31.0,71.0,1.0,1.0,2.0,,2.0,19.0,,2.0,,,3.0,,59.0,125.0,,33.0,21.0,,6.0,13.0,13.0,5.0,7.0,21.0,
33463,TIERRA MIA COFFEE,653 S SPRING ST,58,34.0447,118.25200000000001,,4.0,9.0,2.0,65.0,7.0,31.0,56.0,6.0,3.0,,,,9.0,,1.0,,,1.0,,10.0,20.0,,,7.0,,,5.0,2.0,5.0,3.0,2.0,
33476,LE CAFE NOIR,500 S VIRGIL AVE,58,34.065,118.2868,,,,,,,1.0,,1.0,,,,1.0,1.0,,,,,,,,2.0,,,,,,,11.0,2.0,,,
33480,CATER N CARE,289 S BARRINGTON AVE,58,34.0625,118.4686,,,1.0,,,,1.0,1.0,,1.0,,,,1.0,,,,,,,,,,,,,,1.0,,,,,
33488,I SNACK CAFE INC,500 SHATTO PL,58,34.065,118.2897,,,1.0,,,,1.0,1.0,,3.0,,,3.0,4.0,,2.0,,,,,,11.0,,,,,,,,4.0,1.0,2.0,
33614,HUNGRY GHOST PRODUCTIONS,708 S MARIPOSA AVE,58,34.0594,118.2985,,,,,,,1.0,,,,,,,,,,,,,,1.0,,,,,,,,,,,,
33668,PIZZA JOINT 1 LLC,6477 BRYN MAWR DR,58,34.1136,118.3307,,,,,,,1.0,,,,,,,,,,,,,,,2.0,,,,,,1.0,,,,,
33709,HO HO HO CORPORATION,3465 W 6TH ST STE 130,58,34.0637,118.29700000000001,,,3.0,,8.0,2.0,9.0,6.0,,,,,,1.0,,3.0,,,,,7.0,4.0,,,,,,5.0,,,1.0,,
33747,SUBWAY PRODUCTIONS INC,1475 BLUE JAY WAY,58,34.0988,118.3865,,,,,,,1.0,,,,1.0,,,1.0,,,,,,,,,,,,,,,,,,,
34041,TWO GUYS WALK INTO A BAR INC,1925 CENTURY PARK E,58,34.0574,118.4199,4.0,,5.0,6.0,2.0,10.0,11.0,14.0,2.0,9.0,13.0,1.0,9.0,79.0,,46.0,,,5.0,,6.0,113.0,,8.0,6.0,,89.0,33.0,22.0,197.0,1.0,6.0,
34187,800 LAS PALMAS LLC,8350 MELROSE AVE,58,34.0835,118.37200000000001,,,1.0,,2.0,1.0,1.0,,,,,,,2.0,,,,,,,7.0,5.0,,,,,1.0,1.0,,,,,
34199,RODEO CATERING & EVENTS INC,3655 S GRAND AVE,58,34.0177,118.2778,,,3.0,,1.0,,8.0,4.0,,,,1.0,,2.0,,,,,,,3.0,2.0,,,1.0,,,,3.0,,,9.0,
34259,BETTER LIFE CUISINE,2340 S CORNING ST APT 19,58,34.0385,118.3803,,,,,,1.0,1.0,,,,,,,1.0,,,,,,,,,,,,,,,,,,,
34311,CASA BLANCA COFFEE LOUNGE,5718 HOLLYWOOD BLVD,58,34.1015,118.3143,,,,,,,1.0,,,,,,,,,,,,,,,,,,,,,,3.0,,,,
34340,HOUSE CAFE,8114 BEVERLY BLVD,58,34.0759,118.3662,,,1.0,,,,2.0,1.0,,,,,,,,,,,,,3.0,,,,,,,,,,,,
34418,ARTAKS FAST FOOD,3175 GLENDALE BLVD,58,34.1175,118.2617,,,,,,,2.0,,,,,,,,,,,,,,,,,,1.0,,,,,,,,
34550,SUBWAY SANDWICHES AND SALADS,8310 S VERMONT AVE,58,33.9634,118.2913,,,,,1.0,,1.0,1.0,,,,,,,,,,,,,,,,,,,,,,,,,
34694,LOS BURRITOS,6517 HOLLYWOOD BLVD,58,34.1017,118.3316,,,,,,,1.0,1.0,,,,,,1.0,,,,,,,,,,,,,,,,,,,
34733,SNAKE PIT RESTAURANT,7529 MELROSE AVE,58,34.0837,118.3539,,,,,2.0,,1.0,,,,,,,,,,,,,,,,,,,,,,,,,,
34774,KING TACO RESTAURANT INC,3421 E 14TH ST,58,34.0174,118.206,,,,,,,1.0,,,,,,,,,,,,,,,,,,,,,,,,,,
34820,CHOP HOUSE,4815 VALLEY BLVD STE F,58,34.0663,118.1799,,,1.0,,1.0,,2.0,,,,,,,,,,,,,,3.0,,,,2.0,,2.0,2.0,1.0,,,,
34824,MK HOSPITALITY GROUP LLC,8909 W SUNSET BLVD,58,34.0908,118.3858,,,,,,,1.0,,,,,,,,,,,,,,,,,,,,,,,,,,
34838,RESTARNTE LA ESQINA NUMBER TWO,4159 EAGLE ROCK BLVD,58,34.1216,118.2262,,,4.0,,1.0,,6.0,3.0,,1.0,,,4.0,2.0,,,,,,,3.0,,,,1.0,,1.0,1.0,4.0,2.0,,,
34850,SUBWAY,5701 S CENTRAL AVE,58,33.9904,118.2566,,,,,2.0,,1.0,1.0,,,,,1.0,,,,,,,,1.0,,,1.0,,,,,,,,,
34883,SERRAVALLE FINE FOODS INC,8837 W PICO BLVD,58,34.055,118.3845,,,,,1.0,,3.0,,,,,,,,,,,,,,2.0,,,,,,,,,,,,
34887,JACMAR COMPANIES,12924 W WASHINGTON BLVD,58,33.9949,118.4387,,,,,,,1.0,,,,,,,,,,,,,,,,,,,,,,,,,,
34901,JACMAR COMPANIES,2023 CESAR CHAVEZ AVE,58,34.0489,118.2125,,,,,,,1.0,,,,,,,,,,,,,,,,,,,,,,,,,,
34928,CHINA EXPRESS & LA FRD CHKN,4411 S WESTERN AVE,58,34.0033,118.309,,,,,,,2.0,,,,,,,,,,,,,,,,,,,,,,,,,,
34940,ROSITAS PANADERIA & RESTAURANT,3806 S WESTERN AVE,58,34.0014,118.3113,2.0,3.0,17.0,3.0,19.0,20.0,21.0,34.0,2.0,1.0,3.0,1.0,2.0,6.0,,3.0,,,3.0,,57.0,91.0,,27.0,27.0,,4.0,12.0,12.0,8.0,10.0,14.0,
34993,WI JAMMIN CAFE,1359 S REDONDO BLVD,58,34.0488,118.34899999999999,,,,,,,1.0,1.0,,,,,,,,,,,,,,,,,,,,,,,,,
34997,SUSAN YONG INC,950 S VERMONT AVE,58,34.0539,118.2914,,,,,,,2.0,,,,,,1.0,,,,,,,,,,,,,,,,,,,,
35003,H SALT FISH & CHIPS,4732 HOLLYWOOD BLVD,58,34.1016,118.29299999999999,,,,,,,1.0,3.0,,,,,,,,,,,,,4.0,,,,,,,,,,,,
35121,DRAGON WOK,1457 E FLORENCE AVE,58,33.9748,118.2482,,,,1.0,1.0,1.0,3.0,,2.0,1.0,,,,3.0,,,,,,,5.0,,,,,,,,,,,1.0,
35206,EL HIJO DE GRANJERO,6333 W 3RD ST 3,58,34.0714,118.3598,,1.0,21.0,1.0,13.0,4.0,38.0,47.0,,,,,,,,2.0,,,,,3.0,5.0,,,3.0,,,,3.0,,,1.0,1.0
35218,MAPLES RESTAURANT,232 E 6TH ST,58,34.0447,118.25200000000001,,4.0,9.0,2.0,65.0,7.0,31.0,56.0,6.0,3.0,,,,9.0,,1.0,,,1.0,,10.0,20.0,,,7.0,,,5.0,2.0,5.0,3.0,2.0,
35234,LUCE RISTORANTE,7371 MELROSE AVE,58,34.0835,118.3504,,,,,,,5.0,,,,,,,,,,,,,,,,,,,,,,,,,,
35299,SWEET CRUSH,11753 SAN VICENTE BLVD,58,34.0535,118.4674,,,,,,,2.0,1.0,,,,,,,,,,,,,1.0,2.0,,,,,,2.0,,,,,
35322,FAST TACO,110 E 9TH ST LBBY,58,34.0412,118.2548,2.0,15.0,11.0,5.0,261.0,12.0,24.0,74.0,9.0,6.0,6.0,1.0,3.0,13.0,,11.0,,,,,24.0,149.0,,4.0,2.0,,5.0,7.0,8.0,3.0,3.0,3.0,3.0
35505,PERSEPOLIS CAFE,1269 WESTWOOD BLVD,58,34.0628,118.4389,1.0,1.0,4.0,4.0,30.0,6.0,27.0,55.0,2.0,6.0,5.0,,8.0,53.0,,19.0,,,4.0,,39.0,192.0,,2.0,5.0,,31.0,16.0,74.0,29.0,36.0,9.0,2.0
35664,INGRID SNACK SHOP,934 S LOS ANGELES ST,58,34.0401,118.2547,,1.0,,,11.0,,15.0,5.0,,,,,,,,1.0,,,,,2.0,6.0,,,1.0,,,,,,,,
35718,SIAM IMPRESSION LLC,1749 N SERRANO AVE,58,34.1031,118.3073,,,,,,,1.0,,,1.0,,,,1.0,,,,,,,,3.0,,,3.0,,1.0,1.0,1.0,,,,
35752,TAJ INDIA PALACE,8320 LINCOLN BLVD,58,33.9624,118.4213,,,1.0,,,,4.0,2.0,,,,,,,,,,,,,2.0,7.0,,1.0,1.0,,1.0,1.0,1.0,2.0,,,1.0
35799,K&A GARDEN RESTAURANT INC,3435 WILSHIRE BLVD,58,34.0618,118.2985,,,12.0,3.0,37.0,5.0,32.0,27.0,9.0,20.0,25.0,2.0,48.0,41.0,,72.0,,,2.0,,13.0,184.0,,11.0,1.0,,15.0,19.0,33.0,175.0,6.0,9.0,2.0
35807,OT SPORTS LOUNGE INC,3505 S BENTLEY AVE APT 15,58,34.0197,118.4207,,,,,,,1.0,,,,,,,,,,,,,,,,,,,,,1.0,,,,,
35953,MAUI BEACH INC,1019 WESTWOOD BLVD,58,34.0621,118.4456,,,,,,,4.0,,,,,,,,,,,,,,,,,,,,,,,,,,
35977,AQUA CAFE,610 S RAMPART BLVD STE 12,58,34.0619,118.2814,,2.0,,1.0,2.0,3.0,5.0,,2.0,,,,,,,,,,,,6.0,3.0,,,2.0,,1.0,,1.0,,,,
35984,BROWNSTONE PIAAERIA,2108 COLORADO BLVD,58,34.1389,118.2127,,,,,1.0,,1.0,5.0,,,,,,,,,,,,,2.0,1.0,,,,,,,1.0,,,,
36028,GO VEGGIE,5462 S CENTINELA AVE,58,33.9829,118.4108,,,,,,,1.0,,,,,,,,,,,,,,,,,,1.0,,,,,,,,
36083,PURGATORY PIZZA,1326 E 1ST ST,58,34.0474,118.2262,,,2.0,,,,1.0,,,,,,,,,,,,,,,,,,,,,,,,,,
36090,SIXTH STREET BAR & GRILL,601 S CENTRAL AVE,58,34.0389,118.2401,,,,,,,3.0,,,,,,,,,,,,,,,,,,,,,,,,,,
36190,LOCAL LOUNGE WEST INC,8522 LINCOLN BLVD,58,33.9601,118.4193,,,,,,,2.0,4.0,,,,,,,,,,,,,1.0,,,,,,,,,,,,
36359,HAKKASIAN BREWERY COMPANY LTD,843 E 4TH ST,58,34.0435,118.2372,,,,,,,2.0,,,,,,,,,,,,,,,,,,,,,,,,,,
36427,ARANG RESTAURANT INC,3240 WILSHIRE BLVD FL 4,58,34.0616,118.2926,,1.0,3.0,,12.0,2.0,4.0,14.0,,1.0,,,,7.0,,3.0,,,1.0,,5.0,13.0,,,,,,3.0,15.0,1.0,1.0,3.0,
36433,SHOJIN,333 S ALAMEDA ST STE 310,58,34.0444,118.2382,,,15.0,2.0,11.0,5.0,15.0,24.0,,,1.0,,1.0,1.0,,,,,,,5.0,9.0,,,4.0,,2.0,8.0,4.0,,,,
36483,PONDEROSA CHAPEL ASSN INC,1121 S DUNSMUIR AVE,58,34.0454,118.3396,11.0,5.0,18.0,22.0,38.0,43.0,47.0,117.0,2.0,6.0,5.0,1.0,4.0,34.0,,11.0,,,7.0,,88.0,350.0,,47.0,51.0,,45.0,44.0,38.0,13.0,20.0,28.0,6.0
36610,TAQUERIA ACAPULCO,3415 FLETCHER DR,58,34.1189,118.2402,,,,,,,2.0,,,,,,,,,,,,,,,1.0,,,,,,,,,,,
36623,LA FONDA JAROCHA,1240 HOOPER AVE,58,34.0272,118.2423,,,,,,,3.0,,,,,,,,,,,,,,,,,,,,,,,,,,
36659,EL SALSABOR RESTAURANT,522 S LORENA ST,58,34.0318,118.1982,,,,1.0,,,2.0,,,,,,,,,,,,,,,,,,,,,,,,,,
36707,UABAS PLACE DINER,7806 S SAN PEDRO ST,58,33.9685,118.2693,,,,,,,2.0,,,,,,,,,,,,,,,,,,,,,,,,,,
36797,TOSCANA RESTAURANT,11633 SAN VICENTE BLVD,58,34.0541,118.4632,,,,,,,2.0,2.0,,,,,,,,,,,,,1.0,1.0,,,,,,1.0,50.0,,,7.0,1.0
36949,JERSEY MIKES SUBS,12003 WILSHIRE BLVD,58,34.0452,118.4662,,,,,,,5.0,,,,,,,,,,,,,,,,,,,,,,,,,,
37151,EN FOOD SERVICE INC,11651 SANTA MONICA BLVD,58,34.0442,118.4552,,,1.0,,,1.0,5.0,2.0,,,,,,,,,,,,,,,,1.0,1.0,,,,1.0,,,,
37159,NUVIAS RESTAURANT Y PUPUSERIA,1525 W SUNSET BLVD,58,34.0763,118.2559,,,1.0,,,,2.0,,,,,,,,,,,,,,,,,,,,,,,,,,
37173,VINTAGE BAR GROUP,138 N CRESCENT HTS BLVD,58,34.0747,118.3657,,,,,,,1.0,,,,,,,,,,,,,,,1.0,,,,,,,,,,,
37241,KMA INTERNATIONAL INC,7373 W SUNSET BLVD,58,34.098,118.3507,,,1.0,,,,1.0,,,,,,,,,,,,,,,,,,,,,,,,,,
37316,HEMINGWAYS LOUNGE,6356 HOLLYWOOD BLVD,58,34.1014,118.3284,,1.0,,,,4.0,2.0,2.0,,,,,,1.0,,,,,,,3.0,8.0,,,,,7.0,6.0,2.0,,1.0,,
37323,SUBWAY,3183 WILSHIRE BLVD,58,34.0619,118.2911,,,3.0,1.0,3.0,,3.0,5.0,,,,,,3.0,,2.0,,,,,3.0,8.0,,,,,,,5.0,1.0,,,
